lat;lon;official_name;name;ref:CIS_JR;ref;bus;public_transport;count;id;local_ref
49.4744606;14.2919769;;"""Hrejkovice, ObÚ""";;;yes;platform;;10689846325;A;10
49.4146896;14.6777488;;"""Tábor, Vodňanského""";51326;;yes;platform;;1775579546;;4;4
49.4148536;14.6773242;;"""Tábor, Vodňanského""";51326;;yes;platform;;1775579551;;4;4;4;4
49.4280466;13.8825058;;"""Blatná, Boženy Němcové""";;2;yes;platform;;1903067070;2;10;10
49.4278868;13.8824623;;"""Blatná, Boženy Němcové""";;3;yes;platform;;10689847270;3;10;10
49.4282092;13.8825502;;"""Blatná, Boženy Němcové""";;1;yes;platform;;10689900263;1;10;10;10;10
49.4286423;13.8812656;;"""Blatná, Palackého""";;4;yes;platform;;3157727846;4;10;10
49.4287885;13.8811498;;"""Blatná, Palackého""";;5;yes;platform;;10689900262;5;10;10
49.4289208;13.8810196;;"""Blatná, Palackého""";;6;yes;platform;;10689847280;6;10;10
49.1591225;14.9560032;;"""Jindřichův Hradec, Děbolín""";;;yes;platform;;10687627249;1;10;10;10;10
49.1592636;14.9558744;;"""Jindřichův Hradec, Děbolín""";;;yes;platform;;10687627251;2;10;10;10;10
49.2129212;14.7758331;;Doňov;;;yes;platform;;10687627257;1;10;10
49.2129555;14.7762995;;Doňov;;;yes;platform;;10687627258;2;10;10
49.2081604;14.7946720;"""Záhoří, rozc. 1.0""";"""Záhoří, rozcestí 1.0""";;;yes;platform;;10687627256;2;10;10
49.2082176;14.7938719;"""Záhoří, rozc. 1.0""";"""Záhoří, rozcestí 1.0""";;;yes;platform;;10687627255;1;10;10
49.1981659;14.8206930;"""Pleše, host.""";"""Pleše, hostinec""";;;yes;platform;;10687627252;1;10;10;10;10
49.1983833;14.8205786;"""Pleše, host.""";"""Pleše, hostinec""";;;yes;platform;;10687627254;2;10;10
49.1935139;14.7159410;"""Veselí n. Luž., aut. st.""";"""Veselí nad Lužnicí, aut.st.""";;;yes;platform;;10690713515;1;10;10;10
49.1845337;14.8509772;"""Kardašova Řečice, nám.""";"""Kardašova Řečice, náměstí""";;;yes;platform;;10687627253;1;10
49.2656754;14.9247904;;"""Deštná, náměstí""";5603;;yes;platform;;9297321592;2;10;10;10;10;10;10
49.2657074;14.9248593;;"""Deštná, náměstí""";5603;;yes;platform;;9297321593;3;10;10;10;10;10;10
49.2656379;14.9247060;;"""Deštná, náměstí""";5603;;yes;platform;;9297321591;1;10;10;10;10;10;10
48.7889789;14.7827294;;"""Nové Hrady, aut. nádr.""";;2;yes;platform;;10774359411;1;10;10;10;10
48.7889710;14.7829026;;"""Nové Hrady, aut. nádr.""";;1;yes;platform;;10774359412;1;10;10;10;10
48.7889875;14.7825391;;"""Nové Hrady, aut. nádr.""";;3;yes;platform;;10774359410;3;10;10;10;10
49.0815086;14.7194185;"""Lomnice n. Luž., Václavské nám.""";"""Lomnice nad Lužnicí, Václavské náměstí""";;;yes;platform;;2350432020;1;10
48.7610835;14.7335285;;Horní Stropnice;;2;yes;platform;;10774361776;2;10;10
49.5039715;14.6163788;;"""Borotín, škola""";;;yes;platform;;10692396254;1;10;10;10;10
49.5039100;14.6164260;;"""Borotín, škola""";;;yes;platform;;10692396255;2;10;10;10;10
49.1167832;14.7258501;;Frahelž;;;yes;platform;;5770680179;1;10;10;10;10
49.1168900;14.7260017;;Frahelž;;;yes;platform;;5770680180;2;10;10;10;10
49.0808498;15.4287449;;"""Dačice, sídliště""";5339;;yes;platform;;9524487784;;4;4
49.0810378;15.4283074;;"""Dačice, sídliště""";5339;;yes;platform;;4371584096;;4;4
49.0799753;15.4325781;"""Dačice, Havlíčkovo nám.""";"""Dačice, Havlíčkovo náměstí""";5333;;yes;platform;;2331101735;1;10
49.0815486;15.4331738;;"""Dačice, Komenského""";49521;;yes;platform;;9524487753;1;10
49.0823233;15.4327735;;"""Dačice, ZOU""";5342;;yes;platform;;8047999565;;4;4;4;4
49.0822697;15.4326824;;"""Dačice, ZOU""";5342;;yes;platform;;9524487754;;4;4;4;4
49.5060200;14.6129240;;Borotín;;;yes;platform;;3607940245;1;10;10;10;10
49.5059390;14.6128930;;Borotín;;;yes;platform;;10690713516;2;10;10;10;10
49.4897575;14.2412777;"""Kostelec n. Vlt., Sobědraž, rozc. s. 19""";"""Kostelec nad Vltavou, Sobědraž, rozcestí s. 19""";;;yes;platform;;10689846341;A;10;10;10
49.5137271;14.5925864;"""Borotín, Kamenná Lhota, rozc. 1.0""";"""Borotín, Kamenná Lhota, rozcestí 1.0""";;;yes;platform;;73352984;A;10;10;10;10
49.5136701;14.5925764;"""Borotín, Kamenná Lhota, rozc. 1.0""";"""Borotín, Kamenná Lhota, rozcestí 1.0""";;;yes;platform;;10690708090;A;10;10;10;10
49.5168340;14.5829260;"""Borotín, Sychrov, rozc. Boratkov""";"""Borotín, Sychrov, rozcestí Boratkov""";;;yes;platform;;4445533023;B;10;10;10;10
49.5168880;14.5829140;"""Borotín, Sychrov, rozc. Boratkov""";"""Borotín, Sychrov, rozcestí Boratkov""";;;yes;platform;;10690708092;A;10;10;10;10
49.4667280;14.7356290;"""Ratibořské Hory, Podolí, rozc. 0.3""";"""Ratibořské Hory, Podolí, rozcestí 0.3""";;;yes;platform;;824091958;1;10;10;10;10
49.4667430;14.7359220;"""Ratibořské Hory, Podolí, rozc. 0.3""";"""Ratibořské Hory, Podolí, rozcestí 0.3""";;;yes;platform;;10690713533;2;10;10;10;10
49.4858360;14.7549920;"""Hlasivo, Hlasivko, rozc. 1.0""";"""Hlasivo, Hlasivko, rozcestí 1.0""";;;yes;platform;;10690713543;1;10;10;10;10
49.4858700;14.7550850;"""Hlasivo, Hlasivko, rozc. 1.0""";"""Hlasivo, Hlasivko, rozcestí 1.0""";;;yes;platform;;10690713552;2;10;10;10;10
49.4956780;14.7545270;;Hlasivo;;;yes;platform;;10690713545;1;10;10;10;10
49.4956970;14.7546540;;Hlasivo;;;yes;platform;;10690713550;2;10;10;10;10
49.5015070;14.7720070;;"""Mladá Vožice, Stará Vožice""";;;yes;platform;;10690713535;B;10;10;10;10
49.5015560;14.7719160;;"""Mladá Vožice, Stará Vožice""";;;yes;platform;;10690713541;A;10;10;10;10
49.5091320;14.7847730;"""Mladá Vožice, Blanice, rozc. 1.0""";"""Mladá Vožice, Blanice, rozcestí 1.0""";;;yes;platform;;10690713542;B;10;10;10;10
49.5091740;14.7846930;"""Mladá Vožice, Blanice, rozc. 1.0""";"""Mladá Vožice, Blanice, rozcestí 1.0""";;;yes;platform;;10690713544;A;10;10;10;10
49.5173910;14.7935750;"""Mladá Vožice, rozc. Řemíčov 1.0""";"""Mladá Vožice, rozcestí Řemíčov 1.0""";;;yes;platform;;10690713539;1;10;10;10;10
49.5173530;14.7933920;"""Mladá Vožice, rozc. Řemíčov 1.0""";"""Mladá Vožice, rozcestí Řemíčov 1.0""";;;yes;platform;;10690713548;2;10;10;10;10
49.5151790;14.7749760;;Řemíčov;;;yes;platform;;10690713549;2;10
49.5281577;14.8058456;;"""Mladá Vožice, Táborská""";;;yes;platform;;937215185;1;10;10
49.5278023;14.8057039;;"""Mladá Vožice, Táborská""";;;yes;platform;;8725372186;2;10;10
49.5350600;14.8069600;;"""Mladá Vožice, Voračického""";;;yes;platform;;7990799080;2;10;10
49.5352400;14.8064800;;"""Mladá Vožice, Voračického""";;;yes;platform;;7990799078;1;10;10
49.5101780;14.6578840;;Sudoměřice u Tábora;;;yes;platform;;10690713517;1;10;10;10;10
49.5102420;14.6580250;;Sudoměřice u Tábora;;;yes;platform;;10690713518;2;10;10;10;10
49.5369199;14.8005387;;"""Mladá Vožice, u hřbitova""";;;yes;platform;;10690713563;1;10;10;10;10
49.5369720;14.8005920;;"""Mladá Vožice, u hřbitova""";;;yes;platform;;10690713564;2;10;10;10;10
49.5437770;14.7635470;Zhoř u Ml. Vožice;Zhoř u Mladé Vožice;;;yes;platform;;10690713519;2;10;10;10;10
49.5436780;14.7635690;Zhoř u Ml. Vožice;Zhoř u Mladé Vožice;;;yes;platform;;10690713520;1;10;10;10;10
49.5473370;14.7515690;"""Oldřichov, Těmice rozc. 1.0""";"""Oldřichov, Těmice rozcestí 1.0""";;;yes;platform;;10690713522;1;10;10;10;10;10;10;10;10
49.5576935;14.7546139;;Oldřichov;;;yes;platform;;10251459425;1;10
49.5475900;14.7964600;;"""Mladá Vožice, Noskov, rybník""";;;yes;platform;;7990799082;1;10;10;10;10
49.5500400;14.7974300;;"""Mladá Vožice, Noskov""";;;yes;platform;;6969751535;1;10;10;10;10
49.5501000;14.7975800;;"""Mladá Vožice, Noskov""";;;yes;platform;;7990812386;2;10;10;10;10
49.5529900;14.7959700;;"""Mladá Vožice, Chocov, rozc. 1.0""";;;yes;platform;;7990799079;1;10;10;10;10
49.5530500;14.7958800;;"""Mladá Vožice, Chocov, rozc. 1.0""";;;yes;platform;;7990799084;2;10;10;10;10
49.5654100;14.7767200;;"""Šebířov, Bouřilka""";;;yes;platform;;495647352;1;10;10;10;10
49.5653300;14.7769100;;"""Šebířov, Bouřilka""";;;yes;platform;;7990799081;2;10;10;10;10
49.5721400;14.7710200;;"""Slapsko, Moraveč""";;;yes;platform;;7990812385;1;10;10;10;10
49.5721800;14.7710900;;"""Slapsko, Moraveč""";;;yes;platform;;7990812387;2;10;10;10;10
49.4590260;14.5480870;;"""Jistebnice, Makov""";;;yes;platform;;4453492439;B;10;10;10;10
49.4747390;14.5597310;;"""Jistebnice, Makov, Pazderna""";;;yes;platform;;251689460;B;10;10;10;10
49.4747350;14.5595550;;"""Jistebnice, Makov, Pazderna""";;;yes;platform;;10690713507;A;10;10;10;10
49.4385380;14.7381900;;"""Tábor, Hlinice, V chalupách""";;;yes;platform;;4445533041;1;10;10;10;10
49.4385490;14.7383480;;"""Tábor, Hlinice, V chalupách""";;;yes;platform;;10690713531;2;10;10;10;10
49.4344059;14.7287833;;"""Tábor, Hlinice, myslivna""";;;yes;platform;;4445533035;1;10;10;10;10
49.4343686;14.7288622;;"""Tábor, Hlinice, myslivna""";;;yes;platform;;10690713529;2;10;10;10;10
49.4292648;14.7184403;"""Tábor, Hlinice""";Hlinice;;;yes;platform;;3634343707;1;10;10
49.4293820;14.7190320;"""Tábor, Hlinice""";Hlinice;;;yes;platform;;824091955;2;10;10
49.4232600;14.7035260;"""Tábor, Záluží""";Záluží;;;yes;platform;;3634343703;1;10;10;10;10
49.4231530;14.7036910;"""Tábor, Záluží""";Záluží;;;yes;platform;;3634343704;2;10;10;10;10
49.5652050;14.8242590;;Šebířov;;;yes;platform;;60283916;1;10;10;10;10
49.5650412;14.8241608;;Šebířov;;;yes;platform;;10690713567;2;10;10;10;10
49.5772780;14.8302140;;"""Šebířov, Skrýšov""";;;yes;platform;;281562908;1;10;10;10;10
49.5772400;14.8303120;;"""Šebířov, Skrýšov""";;;yes;platform;;10690713577;2;10;10;10;10
49.5510980;14.8156810;;"""Mladá Vožice, Noskov, Bor""";;;yes;platform;;10690713555;2;10;10;10;10
49.5511250;14.8155980;;"""Mladá Vožice, Noskov, Bor""";;;yes;platform;;10690713557;1;10;10;10;10
49.5420230;14.8135410;;"""Mladá Vožice, KOH-I-NOOR""";;;yes;platform;;10690713558;1;10;10;10;10
49.5434063;14.8361932;;Běleč;;;yes;platform;;277461327;B;10;10;10;10
49.5433270;14.8362720;;Běleč;;;yes;platform;;10690713572;A;10;10;10;10
49.5453220;14.8433080;"""Běleč, Elbančice, rozc. 1.0""";"""Běleč, Elbančice, rozcestí 1.0""";;;yes;platform;;60283151;B;10;10;10;10
49.5452420;14.8433430;"""Běleč, Elbančice, rozc. 1.0""";"""Běleč, Elbančice, rozcestí 1.0""";;;yes;platform;;10690713574;A;10;10;10;10
49.5555990;14.8459470;"""Běleč, Bzová, rozc.""";"""Běleč, Bzová, rozcestí""";;;yes;platform;;277461326;B;10;10;10;10
49.5555610;14.8463830;"""Běleč, Bzová, rozc.""";"""Běleč, Bzová, rozcestí""";;;yes;platform;;10690713573;A;10;10
49.5755351;14.8634598;;"""Vilice, Zátiší""";;;yes;platform;;10690713559;B;10;10;10;10
49.5755390;14.8636030;;"""Vilice, Zátiší""";;;yes;platform;;10690713560;A;10;10;10;10
49.5825000;14.8574990;;"""Vilice, Hrnčíře""";;;yes;platform;;60284463;A;10
49.5369760;14.8121190;;"""Mladá Vožice, Vanišova""";;;yes;platform;;10690713565;1;10;10;10;10
49.5369110;14.8121650;;"""Mladá Vožice, Vanišova""";;;yes;platform;;10690713566;2;10;10;10;10
49.4803086;14.5472044;"""Jistebnice, Tisová rozc. 1.0""";"""Jistebnice, Tisová rozcestí 1.0""";;;yes;platform;;4445533020;A;10;10
49.4803069;14.5482817;"""Jistebnice, Tisová rozc. 1.0""";"""Jistebnice, Tisová rozcestí 1.0""";;;yes;platform;;4445533021;B;10;10
49.4703560;14.5470710;;"""Jistebnice, Hůrka""";;;yes;platform;;4453492440;A;10;10
49.4702910;14.5474340;;"""Jistebnice, Hůrka""";;;yes;platform;;10690708094;B;10;10
49.4833070;14.5321730;;"""Jistebnice, Žofín""";;;yes;platform;;4453492453;B;10;10;10;10
49.4831890;14.5322700;;"""Jistebnice, Žofín""";;;yes;platform;;10690713510;A;10;10;10;10
49.5761400;14.7626300;;Slapsko;;;yes;platform;;537991349;1;10;10;10;10
49.5762100;14.7627000;;Slapsko;;;yes;platform;;7990812398;2;10;10;10;10
49.5837400;14.7496400;;"""Slapsko, Leština, rozc. 0.5""";;;yes;platform;;73317635;2;10;10;10;10
49.5836700;14.7496300;;"""Slapsko, Leština, rozc. 0.5""";;;yes;platform;;7990812392;1;10;10;10;10
49.5878500;14.7403100;;"""Slapsko, Zahrádka""";;;yes;platform;;281846166;2;10;10;10;10
49.5878000;14.7402400;;"""Slapsko, Zahrádka""";;;yes;platform;;7990812393;1;10;10;10;10
49.4666060;14.5649800;;"""Jistebnice, Vlásenice""";;;yes;platform;;4445533019;B;10;10;10;10
49.4664880;14.5650150;;"""Jistebnice, Vlásenice""";;;yes;platform;;10690713505;A;10;10;10;10
49.4552230;14.5885100;"""Balkova Lhota, Knížata rozc. 1.0""";"""Balkova Lhota, Knížata rozcestí 1.0""";;;yes;platform;;4445533007;A;10;10;10;10
49.4553070;14.5885770;"""Balkova Lhota, Knížata rozc. 1.0""";"""Balkova Lhota, Knížata rozcestí 1.0""";;;yes;platform;;10690713513;B;10;10;10;10
49.4613861;14.5922341;;"""Radkov, Paseka""";29239;;yes;platform;;6980167328;A;10;10;10;10
49.4613652;14.5921765;;"""Radkov, Paseka""";29239;;yes;platform;;8856260142;B;10;10;10;10
49.4645332;14.6101777;;Radkov;29238;;yes;platform;;3414617944;A;10;10;10;10
49.4643800;14.6102500;;Radkov;29238;;yes;platform;;8856260143;B;10;10;10;10
49.4516910;14.6064300;;Balkova Lhota;;;yes;platform;;4445533005;A;10;10;10;10
49.4515709;14.6065026;;Balkova Lhota;;;yes;platform;;10690713514;B;10;10;10;10
49.4456140;14.6031020;;"""Balkova Lhota, Výrec""";;;yes;platform;;10690713511;B;10;10;10
49.4307710;14.6203060;;"""Tábor, Všechov""";;;yes;platform;;10690708098;B;10;10
49.4303970;14.6208040;;"""Tábor, Všechov""";;;yes;platform;;4445533006;A;10;10
49.5186540;14.7989270;;"""Mladá Vožice, Agrospol a. s.""";;;yes;platform;;10690713551;1;10;10;10;10
49.5073850;14.7963330;;"""Mladá Vožice, Blanice""";;;yes;platform;;10690713537;1;10;10;10;10
49.5073010;14.7965560;;"""Mladá Vožice, Blanice""";;;yes;platform;;10690713553;2;10;10;10;10
49.4922940;14.7947820;;"""Dolní Hrachovice, Vaněčkův mlýn""";;;yes;platform;;10690713534;1;10;10;10;10
49.4922710;14.7949300;;"""Dolní Hrachovice, Vaněčkův mlýn""";;;yes;platform;;10690713546;2;10;10;10;10
49.4862370;14.7980570;;Dolní Hrachovice;;;yes;platform;;10690713547;1;10;10;10;10
49.4863620;14.7982020;;Dolní Hrachovice;;;yes;platform;;10690713554;2;10;10;10;10
49.4751930;14.7866420;;"""Pohnánec, u cihelny""";;;yes;platform;;10690713536;1;10;10;10;10
49.4751780;14.7867940;;"""Pohnánec, u cihelny""";;;yes;platform;;10690713540;2;10;10;10;10
49.4660338;14.7718344;;"""Ratibořské Hory, U Menšíků""";;;yes;platform;;9104785161;2;10;10
49.4445950;14.7027950;"""Tábor, Hlinice, rozc. 2.0""";"""Tábor, Hlinice, rozcestí 2.0""";;;yes;platform;;10690713530;1;10
49.4445723;14.7029064;"""Tábor, Hlinice, rozc. 2.0""";"""Tábor, Hlinice, rozcestí 2.0""";;;yes;platform;;10690713532;2;10
49.4957540;14.4857030;;"""Nadějkov, Petříkovice""";;;yes;platform;;300807318;A;10;10;10;10
49.4958570;14.4856710;;"""Nadějkov, Petříkovice""";;;yes;platform;;10690708101;B;10;10;10;10
49.4952430;14.4949500;;"""Jistebnice, Hodkov""";;;yes;platform;;74201747;B;10;10;10;10
49.4951619;14.4949354;;"""Jistebnice, Hodkov""";;;yes;platform;;10690713509;A;10;10;10;10
49.5164150;14.4858680;"""Nadějkov, Kaliště, rozc. 1.0""";"""Nadějkov, Kaliště, rozcestí 1.0""";;;yes;platform;;10690708088;B;10;10;10;10;10;10;10;10;10
49.5164720;14.4856620;"""Nadějkov, Kaliště, rozc. 1.0""";"""Nadějkov, Kaliště, rozcestí 1.0""";;;yes;platform;;10690708089;A;10;10;10
49.5223120;14.4805900;;"""Nadějkov, Kaliště""";;;yes;platform;;4453492484;A;10;10;10;10
49.5223160;14.4806660;;"""Nadějkov, Kaliště""";;;yes;platform;;10690708102;B;10;10;10;10
49.5291900;14.4797140;;"""Nadějkov, Bezděkov""";;;yes;platform;;4453492483;A;10;10;10;10
49.5291750;14.4798090;;"""Nadějkov, Bezděkov""";;;yes;platform;;10690708104;B;10;10;10;10
49.3025700;14.7216800;;Roudná;30085;;yes;platform;;9055139509;2;10;10
49.3017100;14.7206300;;Roudná;30085;;yes;platform;;9055139508;1;10;10
49.3531323;14.7027973;"""Planá n. Luž., nám.""";"""Planá nad Lužnicí, náměstí""";26750;;yes;platform;;4779029709;1;10;10;10;10
49.3532370;14.7029477;"""Planá n. Luž., nám.""";"""Planá nad Lužnicí, náměstí""";26750;;yes;platform;;9969151992;2;10;10;10;10
49.0489456;14.1958843;;"""Netolice, nám.""";;4;yes;platform;;10691369673;4;10;10;10;10
49.0494656;14.1964474;;"""Netolice, nám.""";;1;yes;platform;;10691369672;1;10;10;10;10
49.0495344;14.1962749;;"""Netolice, nám.""";;2;yes;platform;;10691369671;2;10;10;10;10
49.0496139;14.1960584;;"""Netolice, nám.""";;3;yes;platform;;10691369670;3;10;10;10;10
49.4880471;14.3229985;;"""Milevsko, Dmýštice""";;;yes;platform;;3931905869;B;10;10;10;10
49.4879418;14.3228521;;"""Milevsko, Dmýštice""";;;yes;platform;;10689846347;A;10;10;10;10
49.4723473;14.3446426;;"""Milevsko, Něžovice, Spálená""";;;yes;platform;;10689846330;A;10;10;10;10
49.4724846;14.3447962;;"""Milevsko, Něžovice, Spálená""";;;yes;platform;;10689846333;B;10;10;10;10
49.4613686;14.3308802;;"""Hrejkovice, Chlumek, rybník Zlatina""";;;yes;platform;;10689846328;A;10;10
49.4617004;14.3305912;;"""Hrejkovice, Chlumek, rybník Zlatina""";;;yes;platform;;10689846329;B;10;10
49.4684486;14.3071289;"""Hrejkovice, Chlumek, rozc. 0.8""";"""Hrejkovice, Chlumek, rozcestí 0.8""";;;yes;platform;;10689846326;A;10;10
49.4686966;14.3066874;"""Hrejkovice, Chlumek, rozc. 0.8""";"""Hrejkovice, Chlumek, rozcestí 0.8""";;;yes;platform;;10689846327;B;10;10
49.4708176;14.3008156;;"""Hrejkovice, Chlumek, samoty""";;;yes;platform;;10689846323;A;10;10;10;10
49.4710121;14.3007278;;"""Hrejkovice, Chlumek, samoty""";;;yes;platform;;10689846324;B;10;10;10;10
49.5386047;14.0418177;;"""Mirovice, Boješice""";;;yes;platform;;10689846362;A;10;10;10;10
49.5386810;14.0419397;;"""Mirovice, Boješice""";;;yes;platform;;10689846364;B;10;10;10;10
49.5457115;14.0494814;"""Mirovice, Ohař, rozc. 1.0""";"""Mirovice, Ohař, rozcestí 1.0""";;;yes;platform;;10689846363;A;10;10;10;10
49.5458031;14.0497475;"""Mirovice, Ohař, rozc. 1.0""";"""Mirovice, Ohař, rozcestí 1.0""";;;yes;platform;;10689846365;B;10;10;10;10
49.5156059;14.0192652;;"""Mirovice, Plíškovice""";;;yes;platform;;10201836188;A;10;10;10;10
49.5155907;14.0194550;;"""Mirovice, Plíškovice""";;;yes;platform;;10689846368;B;10;10;10;10
49.5235940;14.0032510;"""Mirovice, Ráztely, rozc. 2.0""";"""Mirovice, Ráztely, rozcestí 2.0""";;;yes;platform;;9811794896;B;10;10;10;10
49.4651423;14.0688388;"""Čimelice, nám.""";"""Čimelice, náměstí""";;;yes;platform;;10689846375;B;10;10
49.4648080;14.0686297;"""Čimelice, nám.""";"""Čimelice, náměstí""";;;yes;platform;;10689846374;A;10;10
49.4757271;14.3648605;"""Přeborov, rozc. 0.5""";"""Přeborov, rozcestí 0.5""";;;yes;platform;;10689846331;A;10;10;10;10
49.4757958;14.3650475;"""Přeborov, rozc. 0.5""";"""Přeborov, rozcestí 0.5""";;;yes;platform;;10689846332;B;10;10;10;10
49.5211525;14.0726633;"""Lety, rozc. 1.3 sil. č. 4""";"""Lety, rozcestí 1.3 sil. č. 4""";;;yes;platform;;10689846372;B;10;10
49.5209084;14.0724468;"""Lety, rozc. 1.3 sil. č. 4""";"""Lety, rozcestí 1.3 sil. č. 4""";;;yes;platform;;10689846373;A;10;10
49.5156975;14.0505066;;Horosedly;;;yes;platform;;10689846370;B;10;10;10;10
49.5158081;14.0504026;;Horosedly;;;yes;platform;;10689846371;A;10;10;10;10
49.5121307;14.0309143;"""Mirovice, rozc. k žel. st.""";"""Mirovice, rozcestí k železniční stanici""";;;yes;platform;;4745864056;B;10;10;10;10
49.5119667;14.0309544;"""Mirovice, rozc. k žel. st.""";"""Mirovice, rozcestí k železniční stanici""";;;yes;platform;;4745864057;A;10;10;10;10
49.5160534;14.0365144;"""Mirovice, nám.""";"""Mirovice, náměstí""";;;yes;platform;;4737882458;2;10;10;10;10;10;10;10;10
49.5160388;14.0366940;"""Mirovice, nám.""";"""Mirovice, náměstí""";;;yes;platform;;10689846369;3;10;10;10;10;10;10;10;10
49.4148298;14.6861324;;"""Tábor, Brisk a. s.""";;;yes;platform;;3649979510;2;10;10;10;10
49.4149860;14.6862050;;"""Tábor, Brisk a. s.""";;;yes;platform;;3649979511;1;10;10;10;10
49.4917145;14.3638716;"""Zhoř, Zbislav, rozc. 0.5""";"""Zhoř, Zbislav, rozcestí 0.5""";;;yes;platform;;10689846318;A;10;10;10;10
49.4917526;14.3640537;"""Zhoř, Zbislav, rozc. 0.5""";"""Zhoř, Zbislav, rozcestí 0.5""";;;yes;platform;;10689846320;B;10;10;10;10
49.5132256;14.3593302;"""Chyšky, Hněvanice, rozc. Hrazánky 1.4""";"""Chyšky, Hněvanice, rozcestí Hrazánky 1.4""";;;yes;platform;;10689846315;B;10;10;10;10
49.5130997;14.3591700;"""Chyšky, Hněvanice, rozc. Hrazánky 1.4""";"""Chyšky, Hněvanice, rozcestí Hrazánky 1.4""";;;yes;platform;;10689846319;A;10;10;10;10
49.5241850;14.3544890;"""Hrazany, Hrazánky, rozc. 1.7""";"""Hrazany, Hrazánky, rozcestí 1.7""";;;yes;platform;;9811666590;A;10;10;10;10
48.9768889;14.4779616;;Poliklinika Sever;;;yes;platform;;3394321655;1;10;10;10;10
48.9772691;14.4779268;;Poliklinika Sever;;;yes;platform;;1226765696;3;10;10;10;10
48.9775078;14.4762057;;Poliklinika Sever;;;yes;platform;;3394321647;4;10;10;10;10
49.3648780;14.0544816;;Předotice;;;yes;platform;;5514480226;B;10;10
49.3646175;14.0542904;;Předotice;;;yes;platform;;5514480225;A;10;10
48.7609628;14.7336082;;Horní Stropnice;;1;yes;platform;;2422417151;1;10;10
49.4948464;14.2312651;"""Kostelec n. Vlt., Zahrádka, rozc.""";"""Kostelec nad Vltavou, Zahrádka, rozcestí""";;;yes;platform;;10689846342;A;10;10
49.4928398;14.2267952;"""Kostelec n. Vlt., Zahrádka""";"""Kostelec nad Vltavou, Zahrádka""";;;yes;platform;;10689846339;A;10;10;10;10
49.5013352;14.2121573;"""Kostelec n. Vlt., U rybníka""";"""Kostelec nad Vltavou, U rybníka""";;;yes;platform;;10689846346;A;10;10;10;10
49.5466080;14.2475710;"""Kovářov, Zahořany, rozc. 1.1""";"""Kovářov, Zahořany, rozcestí 1.1""";;;yes;platform;;10689846354;B;10;10
49.5465546;14.2474957;"""Kovářov, Zahořany, rozc. 1.1""";"""Kovářov, Zahořany, rozcestí 1.1""";;;yes;platform;;10689846357;A;10;10
49.5538269;14.2395088;;"""Kovářov, Lašovice""";;;yes;platform;;10689846356;B;10;10;10;10
49.5536118;14.2394543;;"""Kovářov, Lašovice""";;;yes;platform;;10689846355;A;10;10
49.5617142;14.2323036;;"""Kovářov, Onen Svět samoty""";;;yes;platform;;10689846359;B;10;10;10;10
49.5616760;14.2322168;;"""Kovářov, Onen Svět samoty""";;;yes;platform;;10689846360;A;10;10;10;10
49.5571480;14.2304106;"""Kovářov, rozc. Klučenice 2.0""";"""Kovářov, rozcestí Klučenice 2.0""";;;yes;platform;;10689846358;B;10;10;10;10
49.5571938;14.2302771;"""Kovářov, rozc. Klučenice 2.0""";"""Kovářov, rozcestí Klučenice 2.0""";;;yes;platform;;10689846361;A;10;10;10;10
49.5381737;14.2549086;;"""Kovářov, Zlučín""";;;yes;platform;;10689846350;A;10;10;10;10
49.5382385;14.2549486;;"""Kovářov, Zlučín""";;;yes;platform;;10689846352;B;10;10;10;10
49.5313683;14.2571573;;"""Kovářov, Radvánov""";;;yes;platform;;10689846349;B;10;10;10;10
49.5314140;14.2570133;;"""Kovářov, Radvánov""";;;yes;platform;;10689846351;A;10;10
49.4529038;14.3599396;;"""Milevsko, škola I""";;;yes;platform;;10689846338;A;10;10;10;10
49.4529114;14.3617506;;"""Milevsko, poliklinika""";;;yes;platform;;10689846336;A;10
49.4463031;14.3644821;;"""Milevsko, U Zámečku""";66834;;yes;platform;;9674056877;;4
49.4566269;14.3628788;;"""Milevsko, Petrovická""";;;yes;platform;;10689846337;A;10
49.4864502;14.2539692;"""Kostelec n. Vlt., Přílepov, rozc. 1.5""";"""Kostelec nad Vltavou, Přílepov, rozcestí 1.5""";;;yes;platform;;10689846340;A;10;10
49.4755211;14.3304281;;"""Milevsko, Něžovice, Jenišovice""";;;yes;platform;;3931905870;B;10;10;10;10
49.4754105;14.3304472;;"""Milevsko, Něžovice, Jenišovice""";;;yes;platform;;10689846348;A;10;10;10;10
49.5555992;14.0506163;;"""Mirovice, Řeteč""";;;yes;platform;;10689846366;A;10
49.5556259;14.0507040;;"""Mirovice, Řeteč""";;;yes;platform;;10689846367;B;10
49.5594300;14.7940500;;"""Mladá Vožice, Chocov""";;;yes;platform;;7990799077;1;10
49.4742165;14.2899380;;Hrejkovice;;;yes;platform;;10689846321;A;10;10;10;10
49.4743042;14.2899284;;Hrejkovice;;;yes;platform;;10689846322;B;10;10;10;10
49.4230148;14.6783398;;"""Tábor, Čekanice, Na vyhlídce""";;;yes;platform;;3649900020;1;10;10;10;10
49.4231926;14.6785678;;"""Tábor, Čekanice, Na vyhlídce""";;;yes;platform;;3649905125;2;10;10;10;10
49.4157942;14.6835642;;"""Tábor, Stránského""";;;yes;platform;;3649979524;1;10;10
49.4155106;14.6839611;;"""Tábor, Stránského""";;;yes;platform;;3649979518;2;10;10
49.4159609;14.6894183;;"""Tábor, Vožická Elektroizola""";;;yes;platform;;3651065499;1;10;10
49.4162545;14.6905561;;"""Tábor, Vožická Elektroizola""";;;yes;platform;;3651064181;2;10;10
