lat;lon;ref;okres;name;stanoviste;typ
49.1390699045115;15.019075639199;13432;JH;Jindøichùv Hradec,,sídl.Vajgar-trojstøedisko;;bus
49.1392113269896;15.020112624856;13432;JH;Jindøichùv Hradec,,sídl.Vajgar-trojstøedisko;;bus
49.144336201269;15.0250998695079;64284;JH;Jindøichùv Hradec,,U cihelny;;bus
49.1383684090457;15.0081553860831;13440;JH;Jindøichùv Hradec,,Zborovská;;bus
49.1382338645838;15.0082297853689;13440;JH;Jindøichùv Hradec,,Zborovská;;bus
49.1670689315437;15.0158927015738;64278;JH;Jindøichùv Hradec,Dolní Skrýchov,toèna;;bus
49.1659879310708;14.9886682735872;13452;JH;Jindøichùv Hradec,Obora,háj.;;bus
49.1661123973983;14.9886930104266;13452;JH;Jindøichùv Hradec,Obora,háj.;;bus
49.1358670525579;15.0444066541134;64326;JH;Jindøichùv Hradec,Otín,toèna;;bus
49.1407948370518;15.039316944929;64289;JH;Jindøichùv Hradec,Otín,vilky;;bus
49.1404643303946;15.0401874935785;64289;JH;Jindøichùv Hradec,Otín,vilky;;bus
49.1636723209177;15.0019215251073;13427;JH;Jindøichùv Hradec,Radouòka;;bus
49.1579035546273;15.0002885719969;13415;JH;Jindøichùv Hradec,Radouòka,Kopeèek;;bus
49.1587617831816;15.001005576236;13415;JH;Jindøichùv Hradec,Radouòka,Kopeèek;;bus
48.8744601389877;14.5305763430872;54404;CB;Komaøice,Pa¹inovice;;bus
49.3229124309652;14.7174386404533;63411;TA;Ko¹ice,Doubí,I/3;;bus
49.3242990198007;14.7160524297123;63411;TA;Ko¹ice,Doubí,I/3;;bus
48.9109022059307;14.1324429369797;16958;PT;Kti¹,,pila;;bus
48.9108315471397;14.1323435081298;16958;PT;Kti¹,,pila;;bus
48.965421377422;13.5899388953962;59469;PT;Kvilda,,Buèina st.hr.;;bus
48.9620483490353;14.4524542373328;19068;CB;Litvínovice;;bus
48.9622011217489;14.4515766119569;19068;CB;Litvínovice;;bus
48.9622138867807;14.4461303654495;63513;CB;Litvínovice,,Stráòka;;bus
48.9643018294371;14.4168323871476;51434;CB;Litvínovice,Mokré,Toèna;;bus
48.9628396118805;14.433561128157;53511;CB;Litvínovice,©indlovy Dvory,Náves;;bus
48.9628696802796;14.4342775652794;53511;CB;Litvínovice,©indlovy Dvory,Náves;;bus
49.0830550123426;14.1926707074941;58328;PT;Malovice,Holeèkov;;bus
49.0829897493909;14.1927834404448;58328;PT;Malovice,Holeèkov;;bus
49.0717862702898;14.2017750961133;58109;PT;Malovice,Hradi¹tì;;bus
49.0717536060551;14.2015670693198;58109;PT;Malovice,Hradi¹tì;;bus
49.0971152924503;14.2310103615665;57683;PT;Malovice,Malovièky;;bus
49.0964113547503;14.2322433533026;57683;PT;Malovice,Malovièky;;bus
49.4517850230368;14.6405126274709;58361;TA;Nasavrky;;bus
49.5120578227234;14.7087324858326;59541;TA;Nemy¹l,Dìdièky;;bus
49.5115215305232;14.7088760500744;59541;TA;Nemy¹l,Dìdièky;;bus
49.5153308994503;14.6780777918166;54877;TA;Nemy¹l,Prudice;;bus
49.4123031719913;14.7611160035315;56466;TA;Nová Ves u Chýnova,,Støíbrné Hutì;;bus
49.056818970111;15.4144602063391;59468;JH;Peè,Urbaneè;;bus
49.3061866776841;14.1503536706194;49150;PI;Písek,,Budovcova;;bus
49.3059946573456;14.1503246042246;49150;PI;Písek,,Budovcova;;bus
49.3126216166503;14.1428990587326;26626;PI;Písek,,Dvoøákova;;bus
49.312509396347;14.1430887034222;26626;PI;Písek,,Dvoøákova;;bus
49.3127793637224;14.154462255128;26628;PI;Písek,,Erbenova;;bus
49.2916507984565;14.1879699568003;26629;PI;Písek,,Flekaèky;;bus
49.3118860496047;14.1521368788805;50588;PI;Písek,,Kollárova;;bus
49.3126694253079;14.1465124602287;50593;PI;Písek,,Kulturní dùm;;bus
49.3162475108023;14.167299178913;26643;PI;Písek,,lesní høbitov;;bus
49.3109898305204;14.1624000609062;26644;PI;Písek,,Logry;;bus
49.3158647354208;14.1449160028444;55545;PI;Písek,,Na Houpaèkách;;bus
49.3136520822921;14.1456081451743;50590;PI;Písek,,nábøe¾í 1.máje;;bus
49.3010831171855;14.1481521913695;50604;PI;Písek,,Nádra¾ní;;bus
49.3008629254141;14.1482343060714;50604;PI;Písek,,Nádra¾ní;;bus
49.2974079325833;14.1617411924;55546;PI;Písek,,Obchodní;;bus
49.2904014854425;14.122478199534;26655;PI;Písek,,rozc.Zátaví;;bus
49.3133451362397;14.1602058917932;50601;PI;Písek,,Sedláèkova;;bus
49.313237690793;14.1597601548253;50601;PI;Písek,,Sedláèkova;;bus
49.3102651280256;14.1255331972316;26659;PI;Písek,,Strakonická;;bus
49.3034536884542;14.1373239634989;26638;PI;Písek,,©rámkùv most;;bus
49.2895971609749;14.1508802634796;26661;PI;Písek,,Teplárna;;bus
49.2895575428042;14.1507112366733;26661;PI;Písek,,Teplárna;;bus
49.2992459656539;14.1448794894924;55548;PI;Písek,,U autobusového nádra¾í;;bus
49.3157797608778;14.1608983706684;26662;PI;Písek,,U pekárny;;bus
49.3018426562854;14.1598529354009;26668;PI;Písek,,Za kaplièkou;;bus
49.3162638744194;14.1566022979235;55549;PI;Písek,,Za Pazdernou;;bus
49.3158970954098;14.1589023034267;55549;PI;Písek,,Za Pazdernou;;bus
49.3036470695757;14.1509298198577;47551;PI;Písek,,Zeyerova;;bus
49.3248779900045;14.1193396170086;55547;PI;Písek,Purkratice,Prùmyslová;;bus
49.3253827451409;14.1201455682733;55547;PI;Písek,Purkratice,Prùmyslová;;bus
49.2804407859284;14.1574190624118;26658;PI;Písek,Smrkovice,¹kola;;bus
49.2805182910258;14.1573086868219;26658;PI;Písek,Smrkovice,¹kola;;bus
48.9431622662057;14.4525791641266;50422;CB;Planá,,Náves-støed;;bus
48.9455512818089;14.4519582024967;49668;CB;Planá,,Náves;;bus
48.945711982273;14.4522484886148;49668;CB;Planá,,Náves;;bus
49.360954791077;14.7173163653136;51324;TA;Planá n.Lu¾.,,JPV;;bus
49.3405490541537;14.721479700058;62683;TA;Planá n.Lu¾.,,Nad Hejtmanem Lipová alej;;bus
49.3428823701858;14.7174416154532;62682;TA;Planá n.Lu¾.,,Okru¾ní bytovky;;bus
49.3481148835253;14.7104981944691;55008;TA;Planá n.Lu¾.,,Strkovská;;bus
49.3478750816989;14.7107427127439;55008;TA;Planá n.Lu¾.,,Strkovská;;bus
49.3576174424716;14.6997813302325;55152;TA;Planá n.Lu¾.,,U øadovek;;bus
49.3589593683845;14.7002719501513;55152;TA;Planá n.Lu¾.,,U øadovek;;bus
49.3553327607522;14.7007685330427;64191;TA;Planá n.Lu¾.,,Za mostem;;bus
49.4535539697381;14.5915210925467;63056;TA;Balkova Lhota,,Èerný Les;;bus
49.4533812644158;14.5916453184804;63056;TA;Balkova Lhota,,Èerný Les;;bus
49.3610577600999;14.3587546765719;62400;PI;Bernartice,Bojenice;;bus
49.3610779380313;14.3585794053827;62400;PI;Bernartice,Bojenice;;bus
49.4438341379477;13.882165164072;60201;ST;Bezdìdovice;;bus
49.443747166168;13.8821911330003;60201;ST;Bezdìdovice;;bus
49.4546325363319;13.8894652278341;60202;ST;Bezdìdovice,Dob¹ice;;bus
49.4545305029771;13.8893418723598;60202;ST;Bezdìdovice,Dob¹ice;;bus
48.9196652413647;14.4007696345232;2210;CB;Bor¹ov n.Vlt.,Zahorèice,rozc.0.5;;bus
48.919615847165;14.4009966809784;2210;CB;Bor¹ov n.Vlt.,Zahorèice,rozc.0.5;;bus
49.0196813353024;14.3293930641336;58346;CB;Bøehov,,obec;;bus
49.0197502726478;14.3294897120305;58346;CB;Bøehov,,obec;;bus
48.9989156049746;14.3839748434604;4308;CB;Èejkovice,,rozc.1.0;;bus
48.9674641245131;14.4634356954004;49754;CB;Èeské Budìjovice,,Autocamping;;bus
48.9677437329038;14.4640996873259;49754;CB;Èeské Budìjovice,,Autocamping;;bus
48.9823880902893;14.4876413793199;58914;CB;Èeské Budìjovice,,Blahoslavova;;bus
48.9822734667384;14.4875630285196;58914;CB;Èeské Budìjovice,,Blahoslavova;;bus
48.9698875711873;14.5004901978151;49713;CB;Èeské Budìjovice,,Edvarda Bene¹e;;bus
48.9698273322586;14.5002473790938;49713;CB;Èeské Budìjovice,,Edvarda Bene¹e;;bus
48.9410008881627;14.4783536433781;64301;CB;Èeské Budìjovice,,Na Dìkanských polích;;bus
48.9742127563498;14.4502780097054;63030;CB;Èeské Budìjovice,,Na Sádkách;;bus
49.0027050569411;14.4826401254553;63512;CB;Èeské Budìjovice,,Nemanická;;bus
49.0025583984164;14.4828431148421;63512;CB;Èeské Budìjovice,,Nemanická;;bus
48.9667725561841;14.5088105189828;56567;CB;Èeské Budìjovice,,Pohùrecká U ¹koly;;bus
48.9668183281421;14.5083415223545;56567;CB;Èeské Budìjovice,,Pohùrecká U ¹koly;;bus
48.9972521475152;14.5077456975447;54669;CB;Èeské Budìjovice,,Slévárenská;;bus
48.9970825041649;14.5076962001657;54669;CB;Èeské Budìjovice,,Slévárenská;;bus
48.9707971193198;14.502857720978;4873;CB;Èeské Budìjovice,,Suché Vrbné;;bus
48.9728532822109;14.4439445829959;64936;CB;Èeské Budìjovice,,©vábùv Hrádek;;bus
48.9718243204714;14.4833668107966;64302;CB;Èeské Budìjovice,,U Koníèka;;bus
48.9723738538355;14.4830320105338;64302;CB;Èeské Budìjovice,,U Koníèka;;bus
48.9723153425745;14.4832356580483;64302;CB;Èeské Budìjovice,,U Koníèka;;bus
48.9555936690751;14.4982447531896;63498;CB;Èeské Budìjovice,Nové Hodìjovice,Za høbitovem;;bus
49.1533558734807;14.222051228324;58543;ST;Èíèenice,,¾el.st.;;bus
49.4695470676801;14.0694364926673;58569;PI;Èimelice,,za Pramenem;;bus
49.0837830891083;15.4254151046196;56718;JH;Daèice,,A.Dvoøáka;;bus
49.0859025489256;15.4270953613415;56717;JH;Daèice,,Èervený Vrch;;bus
49.0858387680645;15.4271512007371;56717;JH;Daèice,,Èervený Vrch;;bus
49.2594039383519;14.5220082275841;59521;TA;Bøeznice,Jamník,rozc.;;bus
49.2920811328669;14.8431650201985;54604;TA;Budislav,,rozc.Zálu¾í.1.5;;bus
49.2792057997674;14.9537845571799;30039;JH;Rosièka;;bus
49.4282722360459;14.4140550094312;31452;PI;Sepekov,,rozc.;;bus
49.4283308084601;14.413883583495;31452;PI;Sepekov,,rozc.;;bus
49.2671678926443;13.8838144965876;51367;ST;Strakonice,,Jezárky;;bus
49.267045894636;13.8836402692546;51367;ST;Strakonice,,Jezárky;;bus
49.2667546631717;13.9010437753665;33248;ST;Strakonice,,Jiøího z Podìbrad;;bus
49.266687136405;13.9011303320211;33248;ST;Strakonice,,Jiøího z Podìbrad;;bus
49.2692814739729;13.873884457487;62957;ST;Strakonice,,K Dra¾ejovu;;bus
49.2687965561839;13.8773990731561;62957;ST;Strakonice,,K Dra¾ejovu;;bus
49.2643396070377;13.907595347024;33249;ST;Strakonice,,Lidická;;bus
49.264645575361;13.9078693514213;33249;ST;Strakonice,,Lidická;;bus
49.2660439170697;13.894250673068;33250;ST;Strakonice,,Máchova ul.;;bus
49.2660966144793;13.8935482753666;33250;ST;Strakonice,,Máchova ul.;;bus
49.264374733346;13.8939972462309;33252;ST;Strakonice,,Mírová ul.;;bus
49.2641425520374;13.894248789269;33252;ST;Strakonice,,Mírová ul.;;bus
49.2581628204089;13.9065582359123;47698;ST;Strakonice,,Na Ohradì;;bus
49.267135731034;13.9057741144304;62956;ST;Strakonice,,Nemocnice;;bus
49.2669304573708;13.9058606121794;62956;ST;Strakonice,,Nemocnice;;bus
49.2600702199163;13.900064209458;56813;ST;Strakonice,,Pivovar;;bus
49.2485886597647;13.9444532060229;33260;ST;Strakonice,,Podsrp - hájenka;;bus
49.2486607995007;13.9444153003269;33260;ST;Strakonice,,Podsrp - hájenka;;bus
49.2518424239093;13.9217266700521;33262;ST;Strakonice,,Podsrpenská - Na Hajskou;;bus
49.2519603231051;13.9217329795877;33262;ST;Strakonice,,Podsrpenská - Na Hajskou;;bus
49.249535057619;13.9168894352857;59487;ST;Strakonice,,Pová¾ská ¹kola;;bus
49.2496248788757;13.9171758523612;59487;ST;Strakonice,,Pová¾ská ¹kola;;bus
49.2693926165138;13.8867265908797;55477;ST;Strakonice,,Profesora Skupy;;bus
49.2699812958101;13.9087842444018;33267;ST;Strakonice,,Raisova;;bus
49.2699852484629;13.9091690861714;33267;ST;Strakonice,,Raisova;;bus
49.2687761072623;13.913905607812;33268;ST;Strakonice,,Raisova I;;bus
49.2687093626813;13.9145573024894;33268;ST;Strakonice,,Raisova I;;bus
49.2689092188418;13.8937413556175;33271;ST;Strakonice,,Sídli¹tì;;bus
49.248432840174;13.9131393411902;33272;ST;Strakonice,,©umavská I;;bus
49.2686981868394;13.8854442491275;33273;ST;Strakonice,,©vandy dudáka;;bus
49.2595240920612;13.9023154552615;33274;ST;Strakonice,,Tr¾nice;;bus
49.2556942301383;13.9120933418424;33276;ST;Strakonice,,U Dudáka;;bus
49.2759834121251;13.8886256495711;51161;ST;Strakonice,,ul.Tisová;;bus
49.2566984280808;13.9473796012739;33290;ST;Strakonice,Hajská;;bus
49.2728864739167;13.8674471550869;33294;ST;Strakonice,Starý Dra¾ejov;;bus
49.4438652650019;14.6372140462862;58363;TA;Svrabov,Hejlov,rozc.;;bus
49.4097290496363;14.6768411544018;57643;TA;Tábor,,Husova;;bus
49.4085979070628;14.6800713937975;57640;TA;Tábor,,Komenského;;bus
49.2920816514681;14.843015221504;54604;TA;Budislav,,rozc.Zálu¾í.1.5;;bus
49.0810056822804;15.4200072918958;56719;JH;Daèice,,Nivy sídli¹tì;;bus
49.0809050352724;15.4197872398928;56719;JH;Daèice,,Nivy sídli¹tì;;bus
49.0837042471678;15.4372884575126;56821;JH;Daèice,,u aut.nádr.;;bus
48.6506726064659;14.4525733240894;6487;CK;Dolní Dvoøi¹tì,,st.hr.;;bus
49.3320799768537;14.0649669846205;62680;PI;Drhovle,Mlaka,rozc.;;bus
49.3320966494056;14.064774349383;62680;PI;Drhovle,Mlaka,rozc.;;bus
48.9856137520409;14.5553375161058;56569;CB;Hlincová Hora,,Ke Høi¹ti;;bus
48.9853672685416;14.5540137728602;56568;CB;Hlincová Hora,,Okru¾ní;;bus
49.0955509923322;15.0097243509003;64073;JH;Horní Pìna,Malíkov nad Ne¾árkou;;bus
49.4744705812934;14.2919713144074;53919;PI;Hrejkovice,,ObÚ;;bus
49.4631809091678;14.685214276825;62860;TA;Chotoviny,Vrá¾ná,Sever;;bus
49.401689189833;14.8052219876284;55730;TA;Chýnov,,Turovecká;;bus
49.3989089610683;14.8133980922468;63812;TA;Chýnov,Záhostice,Okru¾ní;;bus
49.3991730867279;14.8135744532935;63812;TA;Chýnov,Záhostice,Okru¾ní;;bus
49.1536089479945;15.0131813615417;64288;JH;Jindøichùv Hradec,,Jaro¹ovská;;bus
49.1529742797236;15.0126782313556;64288;JH;Jindøichùv Hradec,,Jaro¹ovská;;bus
49.1549607522379;15.0055625834663;53265;JH;Jindøichùv Hradec,,JHMD;;bus
49.1315396946623;15.0142427000432;64239;JH;Jindøichùv Hradec,,Jiráskovo pøedmìstí;;bus
49.1311490001302;15.0137035427038;64239;JH;Jindøichùv Hradec,,Jiráskovo pøedmìstí;;bus
49.1475526392383;15.0364171279845;13411;JH;Jindøichùv Hradec,,Jitka Bobelovka;;bus
49.142512927191;14.9939189518189;62946;JH;Jindøichùv Hradec,,Na Palici;;bus
49.1427586289594;14.9937277124192;62946;JH;Jindøichùv Hradec,,Na Palici;;bus
49.1461060298656;15.0032039549104;13421;JH;Jindøichùv Hradec,,nám.Masarykovo;;bus
49.1396309844687;15.0068743932243;63476;JH;Jindøichùv Hradec,,nemocnice hlavní brána;;bus
49.1395340041086;15.0067657963536;63476;JH;Jindøichùv Hradec,,nemocnice hlavní brána;;bus
49.1384812439585;15.0043257815823;64290;JH;Jindøichùv Hradec,,nemocnice LDN;;bus
49.1334374961961;15.0106363436688;64247;JH;Jindøichùv Hradec,,obchodní zóna;;bus
49.1330851777933;15.0096054339724;64247;JH;Jindøichùv Hradec,,obchodní zóna;;bus
49.1482130975656;15.0017198048897;13424;JH;Jindøichùv Hradec,,Odìva;;bus
49.1404192416676;15.0021202324759;64085;JH;Jindøichùv Hradec,,poliklinika;;bus
49.1396250399382;15.0023606659241;64085;JH;Jindøichùv Hradec,,poliklinika;;bus
49.1514857989172;14.9963557594875;13409;JH;Jindøichùv Hradec,,Pra¾ská;;bus
49.1511798041592;14.9965577955125;13409;JH;Jindøichùv Hradec,,Pra¾ská;;bus
49.1503277322415;15.0078812957569;13431;JH;Jindøichùv Hradec,,sídl. U nádra¾í;;bus
49.1506819898171;15.0089326547082;13431;JH;Jindøichùv Hradec,,sídl. U nádra¾í;;bus
49.0287215667335;15.3512326801363;32051;JH;Slavonice,Rubá¹ov;;bus
49.0430505148832;15.3424228265945;5001;JH;Èeský Rudolec,Nová Ves;;bus
49.0430345356334;15.3423255163833;5001;JH;Èeský Rudolec,Nová Ves;;bus
49.0720037275145;15.3231881783815;4993;JH;Èeský Rudolec,,¹kola;;bus
49.0719699312913;15.3233048742315;4993;JH;Èeský Rudolec,,¹kola;;bus
49.0757367504824;15.2874864319584;4994;JH;Èeský Rudolec,Dolní Radíkov;;bus
49.0851599099008;15.3049234531513;4995;JH;Èeský Rudolec,Horní Radíkov,rozc.1.0;;bus
49.0851662786383;15.3048355795065;4995;JH;Èeský Rudolec,Horní Radíkov,rozc.1.0;;bus
49.0891356568734;15.3178019773204;4997;JH;Èeský Rudolec,Markvarec;;bus
49.0892079790046;15.3178796641674;4997;JH;Èeský Rudolec,Markvarec;;bus
49.1065323475345;15.3104133699723;4996;JH;Èeský Rudolec,Lipnice;;bus
49.1065349423725;15.3103009545119;4996;JH;Èeský Rudolec,Lipnice;;bus
49.0973423432877;15.2649733260226;17129;JH;Kun¾ak,Valtínov;;bus
49.0972179758123;15.2649547127238;17129;JH;Kun¾ak,Valtínov;;bus
49.1096696776972;15.2340882930363;17128;JH;Kun¾ak,Mosty;;bus
49.1138027669075;15.2159144286615;17127;JH;Kun¾ak,Lána;;bus
49.1137319189179;15.2158497458113;17127;JH;Kun¾ak,Lána;;bus
49.3022180590804;13.8734087464896;37711;ST;Únice,Hubenov;;bus
49.3030256690382;13.8731089137109;37711;ST;Únice,Hubenov;;bus
49.309834182079;13.8705525140362;37710;ST;Únice;;bus
49.3099835209136;13.870657821127;37710;ST;Únice;;bus
49.3315724670709;13.860292554351;36726;ST;Tøebohostice;;bus
49.3318532535294;13.8604829643331;36726;ST;Tøebohostice;;bus
49.3310538831245;13.8452900818758;36729;ST;Tøebohostice,Zadní Zborovice;;bus
49.3309592860968;13.8453518271194;36729;ST;Tøebohostice,Zadní Zborovice;;bus
49.3343650813378;13.8130850948729;55067;ST;Hlupín,,rozc.;;bus
49.3343124453769;13.813050661924;55067;ST;Hlupín,,rozc.;;bus
49.3477440527506;13.8111917107209;20589;ST;Meèichov;;bus
49.3440242037232;13.8480256645272;36728;ST;Tøebohostice,Tøebohost.Chalupy,rozc.1;;bus
49.3440337352958;13.848112111801;36728;ST;Tøebohostice,Tøebohost.Chalupy,rozc.1;;bus
49.3530661209082;13.8421129820812;55066;ST;Doubravice,Naho¹ín,II;;bus
49.3531443427311;13.8421765539634;55066;ST;Doubravice,Naho¹ín,II;;bus
49.3516205904951;13.8579888590322;52499;ST;Doubravice,,M©;;bus
49.3521236701013;13.8611010527601;6987;ST;Doubravice;;bus
49.3521284001179;13.8608235854378;6987;ST;Doubravice;;bus
49.3516998128777;13.8581812760114;52499;ST;Doubravice,,M©;;bus
49.366049730418;13.841484770632;2545;ST;Bratronice;;bus
49.3665203882468;13.841614523894;2545;ST;Bratronice;;bus
49.4206944582821;13.8811164953254;1506;ST;Blatná,,myslivna;;bus
49.4206866231099;13.881250318299;1506;ST;Blatná,,myslivna;;bus
49.4105014962648;13.8842583170345;1502;ST;Maèkov,,jízdárna;;bus
49.4106076117281;13.8842450020631;1502;ST;Maèkov,,jízdárna;;bus
49.4042081012561;13.8858593799621;19933;ST;Maèkov;;bus
49.4085068212439;14.6802814057927;57640;TA;Tábor,,Komenského;;bus
49.4086083315323;14.6772991480174;51349;TA;Tábor,,Maredùv vrch;;bus
49.4020068499349;14.6807357941733;57642;TA;Tábor,,Maredova;;bus
49.4034553040533;14.6824388633646;57641;TA;Tábor,,Nad Øekou;;bus
49.4236492129644;14.645850479597;54921;TA;Tábor,,Petrohradská;;bus
49.4228639416357;14.645694124847;54921;TA;Tábor,,Petrohradská;;bus
49.3949675196792;14.6894588079815;56953;TA;Tábor,,Stop Shop;;bus
49.4138662542529;14.6616848859479;57645;TA;Tábor,,U Støelnice;;bus
49.4136544174422;14.6617329163968;57645;TA;Tábor,,U Støelnice;;bus
49.414778701707;14.6775841160512;55754;TA;Tábor,,Vodòanského;;bus
49.4148667484317;14.6773089480796;55754;TA;Tábor,,Vodòanského;;bus
49.4238553897244;14.6506874092584;54920;TA;Tábor,,Zimní stadion;;bus
49.423486695189;14.6506221062473;54920;TA;Tábor,,Zimní stadion;;bus
49.4159278350766;14.6433472725697;64938;TA;Tábor,Klokoty,Klá¹ter;;bus
49.4041783030963;14.7028252467517;35327;TA;Tábor,Mì¹ice,V prùhonu;;bus
49.4039846905528;14.7031150575647;35327;TA;Tábor,Mì¹ice,V prùhonu;;bus
49.0494437524105;14.0367475052903;56861;PT;Tì¹ovice,Bìleè,náves;;bus
49.0042775854458;14.7601010215314;56528;JH;Tøeboò,,Na Hliníku;;bus
49.0181132088086;14.7400749219945;36759;JH;Tøeboò,Bøilice,zast.ÈSAD;;bus
49.0180430059898;14.7401365847109;36759;JH;Tøeboò,Bøilice,zast.ÈSAD;;bus
49.2258131251853;14.4151248321016;58608;CB;Týn n.Vlt.,,Dewetterova ul.;;bus
49.2294909737711;14.4222048043456;58609;CB;Týn n.Vlt.,,Milevská ul.;;bus
48.9205297954504;14.4522748859259;49672;CB;Vèelná,,Jiráskova;;bus
48.9208708929933;14.4528819138824;49672;CB;Vèelná,,Jiráskova;;bus
48.9205485498533;14.4462344507193;49673;CB;Vèelná,,Toèna;;bus
48.920783098256;14.4458008125627;49673;CB;Vèelná,,Toèna;;bus
49.0619438773202;13.7742741882589;63412;PT;Vimperk,,nad pekárnou;;bus
49.0608198690355;13.7785857661629;63413;PT;Vimperk,,nad ¹kolou;;bus
49.034385723512;13.758597693913;39515;PT;Vimperk,Klá¹terec;;bus
49.0344835418389;13.7587294776559;39515;PT;Vimperk,Klá¹terec;;bus
49.0206250511636;13.7351967619479;39519;PT;Vimperk,Lipka;;bus
49.020620136559;13.7353250915578;39519;PT;Vimperk,Lipka;;bus
49.0841396587916;13.9143497870344;56822;PT;Vlachovo Bøezí,Uhøice;;bus
49.1453289922039;14.1800894225195;63590;ST;Vodòany,,¾el.st.;;bus
48.9098829997145;13.8841615205049;57505;PT;Volary,,¹kola;;bus
49.4558287187402;14.3252394854232;58620;PI;Zbelítov,,náves;;bus
48.964946908476;14.4239626009238;49678;CB;Litvínovice,Mokré,zast.;;bus
48.964363259449;14.4274072721404;19070;CB;Litvínovice,©indlovy Dvory;;bus
48.9644792484792;14.427209412298;19070;CB;Litvínovice,©indlovy Dvory;;bus
49.2432322306468;13.903200459695;22280;ST;Strakonice,,rozc.Mutìnice 0.1;;bus
49.4202330777825;14.6778855162135;54699;TA;Tábor,Èekanice,V Dolinách;;bus
49.380016446794;14.7045121989209;51358;TA;Sezimovo Ústí,,II Z©;;bus
49.1811636015178;13.7452626799901;7093;ST;Nová Ves,,rozc.Kváskovice 1.5;;bus
49.1832749464545;13.7356154279272;23664;ST;Nová Ves,Lazna;;bus
49.1836370694986;13.7355287907257;23664;ST;Nová Ves,Lazna;;bus
49.1872678604286;13.7336742300696;23663;ST;Nová Ves;;bus
49.1876466547131;13.7332307289062;23663;ST;Nová Ves;;bus
49.1882944679681;13.7239345310623;23666;ST;Nová Ves,Víska;;bus
49.18813678322;13.7237633405178;23666;ST;Nová Ves,Víska;;bus
49.1913954268074;13.7155201870985;33365;ST;Nová Ves,,rozc.Stra¹ice 2.0;;bus
49.1910400105126;13.7137749939938;33365;ST;Nová Ves,,rozc.Stra¹ice 2.0;;bus
49.1894335198975;13.6969727854145;23665;ST;Nová Ves,Lhota p.Kùstrým;;bus
49.2027339001171;13.7298395258024;33364;ST;Stra¹ice;;bus
49.202732387645;13.7300910712719;33364;ST;Stra¹ice;;bus
49.2171289754573;13.7293905865505;33367;ST;Stra¹ice,©kùdra,rozc.1.3;;bus
49.2172336579253;13.7295239087898;33367;ST;Stra¹ice,©kùdra,rozc.1.3;;bus
49.2185433247992;13.7400672758485;33366;ST;Stra¹ice,©kùdra;;bus
49.2139934791228;13.7525108467449;42285;ST;Stra¹ice,,samoty u Zvotok;;bus
49.2139933670851;13.7524026256923;42285;ST;Stra¹ice,,samoty u Zvotok;;bus
49.2113854454198;13.7571834235848;42284;ST;Zvotoky;;bus
49.2323573824833;13.7609906176588;40060;ST;Volenice,Ta¾ovice;;bus
49.2323547792045;13.7608558270969;40060;ST;Volenice,Ta¾ovice;;bus
49.2348471011494;13.7466192868642;40059;ST;Volenice,Ohrazenice;;bus
49.2261307028804;13.7184997610804;16380;ST;Krejnice,,Nad mlýnem;;bus
49.2260951972394;13.7185563170755;16380;ST;Krejnice,,Nad mlýnem;;bus
49.2256624714635;13.7083084500053;40061;ST;Volenice,Vojnice;;bus
49.2326623468043;13.7185791824852;16379;ST;Krejnice;;bus
49.2532017937964;13.7486470853962;40058;ST;Volenice;;bus
49.2532991252539;13.7483871266455;40058;ST;Volenice;;bus
49.2272764553028;13.7368813250155;40062;ST;Stra¹ice,,rozc.Vojnice 1.5;;bus
49.2271432497371;13.736767133921;40062;ST;Stra¹ice,,rozc.Vojnice 1.5;;bus
49.2307098253111;13.7661607733184;48119;ST;Volenice,Ta¾ovice,náves;;bus
49.227699018223;13.803707282397;16181;ST;Kraselov;;bus
49.2277637714505;13.8038923495324;16181;ST;Kraselov;;bus
49.2330636292931;13.8052606838702;47849;ST;Kraselov,Milèice,rozc.0.7;;bus
49.2332532645838;13.8053836892585;47849;ST;Kraselov,Milèice,rozc.0.7;;bus
49.2456798354532;13.8096904366082;27849;ST;Pracejovice,Makarov;;bus
49.2458551593512;13.8100692883463;27849;ST;Pracejovice,Makarov;;bus
49.2566645261338;13.8148911889695;24014;ST;Novosedly,Slouèín;;bus
49.2570401334809;13.8151414818669;24014;ST;Novosedly,Slouèín;;bus
49.2669604581529;13.8340029486829;14180;ST;Katovice,Liboè;;bus
49.2668464589162;13.8342653580558;14180;ST;Katovice,Liboè;;bus
49.2587450529123;13.8504273608169;27847;ST;Pracejovice;;bus
49.2585232848014;13.850242127757;27847;ST;Pracejovice;;bus
49.2432013572525;13.8439751836057;7058;ST;Drachkov;;bus
49.2513298818627;13.8743164253834;33244;ST;Strakonice,,Hùl pískovna;;bus
48.7695626866133;14.755635529167;9964;CB;Horní Stropnice,Svìtví;;bus
49.4310866982976;13.8737969178562;1500;ST;Blatná,,¾el.st.;;bus
49.4306405620185;13.87283041078;1500;ST;Blatná,,¾el.st.;;bus
49.430576724324;13.8726998813042;1500;ST;Blatná,,¾el.st.;;bus
48.9741982084437;14.4789370497518;49701;CB;Èeské Budìjovice,,Senová¾né nám.-po¹ta;;bus
48.9431205416398;14.4664491010307;57397;CB;Èeské Budìjovice,,Ro¾nov - toèna;;bus
49.2510395192673;13.9207624450974;33261;ST;Strakonice,,Podsrp-prodejna;;bus
49.2510166586869;13.9208799462085;33261;ST;Strakonice,,Podsrp-prodejna;;bus
49.2137411898308;13.9264379295561;29336;ST;Rado¹ovice,Svary¹ov;;bus
49.2136058190731;13.9267158264058;29336;ST;Rado¹ovice,Svary¹ov;;bus
49.2082975159453;13.9316719785517;29335;ST;Rado¹ovice,Milíkovice;;bus
49.20826951202;13.9317337237917;29335;ST;Rado¹ovice,Milíkovice;;bus
49.1933661188727;13.9126853439254;10345;ST;Ho¹tice;;bus
49.1933232905275;13.9136092521565;10345;ST;Ho¹tice;;bus
49.1879773036278;13.9291502169424;21066;ST;Milejovice;;bus
49.1879038419516;13.9294571380619;21066;ST;Milejovice;;bus
49.1795403645876;13.8945619819584;28611;ST;Pøechovice;;bus
49.1801372465981;13.893111707517;48107;ST;Pøechovice,,rozc.0.1;;bus
49.1791254650205;13.8932345049818;48107;ST;Pøechovice,,rozc.0.1;;bus
49.1791008954674;13.8094265950482;5083;ST;Èestice,Støídka;;bus
49.178986498048;13.8096086834276;5083;ST;Èestice,Støídka;;bus
49.201201400394;13.8393102850775;37649;ST;Úlehle;;bus
49.2010081866118;13.8394363223634;37649;ST;Úlehle;;bus
49.1965988395665;13.8342597157053;37650;ST;Úlehle,Radkovice;;bus
49.1961779078327;13.8336299964636;37650;ST;Úlehle,Radkovice;;bus
49.2022639431924;13.8287231768539;23201;ST;Niho¹ovice,Jeti¹ov,rozc.0.8;;bus
49.2023420763661;13.8285843170663;23201;ST;Niho¹ovice,Jeti¹ov,rozc.0.8;;bus
49.2087449253919;13.8174279505696;41232;ST;Zahorèice;;bus
49.2086617541854;13.8173317883496;41232;ST;Zahorèice;;bus
49.2150981234628;13.8041685373518;16182;ST;Kraselov,,rozc.1.2;;bus
49.2152606117326;13.8043279297291;16182;ST;Kraselov,,rozc.1.2;;bus
49.1926589706631;13.7997257798393;22856;ST;Nìmèice;;bus
49.1925058896464;13.7998107279422;22856;ST;Nìmèice;;bus
49.1956746294029;13.77881655575;10216;ST;Hoslovice,Hodìjov,rozc.2.0;;bus
49.2060629834761;13.7752902419295;10215;ST;Hoslovice,Hodìjov;;bus
49.2119028987572;13.7819313303095;10217;ST;Hoslovice,©kroboèov;;bus
49.2120548587425;13.7819431462612;10217;ST;Hoslovice,©kroboèov;;bus
49.2167766533837;13.7900410191551;16186;ST;Kraselov,Mladotice;;bus
49.1928782497081;13.764106583947;10214;ST;Hoslovice;;bus
49.1923105554749;13.7620252519352;10214;ST;Hoslovice;;bus
49.1859380206528;13.7551264840017;7089;ST;Hoslovice,,rozc.Drá¾ov 2.5;;bus
49.18587435707;13.7551633197636;7089;ST;Hoslovice,,rozc.Drá¾ov 2.5;;bus
49.1813739139764;13.7458675995502;7093;ST;Nová Ves,,rozc.Kváskovice 1.5;;bus
49.3758568680707;13.8852213082001;1515;ST;Blatná,Èekanice;;bus
49.3758686785244;13.8853138110062;1515;ST;Blatná,Èekanice;;bus
49.3629461942104;13.8835028128307;17624;ST;La¾any;;bus
49.3630177045318;13.8835861157107;17624;ST;La¾any;;bus
49.4218454971103;13.8928002670213;1503;ST;Blatná,,krematorium;;bus
49.4219120475909;13.8928151378931;1503;ST;Blatná,,krematorium;;bus
49.4229439084978;13.9294008406505;3575;ST;Buzice;;bus
49.4310610844256;13.8838936824171;1507;ST;Blatná,,poliklinika;;bus
49.4310571638933;13.8837438928548;1507;ST;Blatná,,poliklinika;;bus
49.4333569114306;13.871372923503;47826;ST;Blatná,,Riegrova;;bus
49.4281816639747;13.8825346163263;1511;ST;Blatná,,Bo¾eny Nìmcové;1;bus
49.4281145782747;13.8825444425811;1511;ST;Blatná,,Bo¾eny Nìmcové;2;bus
49.4279107753252;13.8824757232841;1511;ST;Blatná,,Bo¾eny Nìmcové;3;bus
49.4286515318243;13.8812644298634;1512;ST;Blatná,,Palackého;6;bus
49.42878864014;13.8811489380282;1512;ST;Blatná,,Palackého;5;bus
49.421443888344;13.8787435585839;1510;ST;Blatná,,U sladovny;;bus
49.4221071323598;13.8768768908199;1510;ST;Blatná,,U sladovny;;bus
49.4175336956279;13.8852349001188;1505;ST;Blatná,,mlékárna;;bus
49.4174547092771;13.8856293834429;1505;ST;Blatná,,mlékárna;;bus
49.4137973740307;13.9029171155201;1504;ST;Blatná,,Lapaè;;bus
49.4136124329878;13.9032210715313;1504;ST;Blatná,,Lapaè;;bus
49.4111442394557;13.9066745787132;1519;ST;Blatná,Hnìvkov,rozc.1.2;;bus
49.4111650769934;13.9063811593159;1519;ST;Blatná,Hnìvkov,rozc.1.2;;bus
49.4071302883396;13.9358448116376;34809;ST;©kvoøetice,Pacelice;;bus
49.4071545729456;13.9359075583756;34809;ST;©kvoøetice,Pacelice;;bus
49.4018855216577;13.9470596095038;34808;ST;©kvoøetice;;bus
49.4019293771214;13.9479678986817;34808;ST;©kvoøetice;;bus
49.4101927027742;13.9897785950291;19180;ST;Lom;;bus
49.4102643915597;13.9897371287117;19180;ST;Lom;;bus
49.401905376414;13.9910164903835;47515;ST;Sedlice,,rozc.Jarotice 1.0;;bus
49.3967464116203;13.9931467819778;31203;ST;Sedlice,Dùl;;bus
49.396672316289;13.9932428100034;31203;ST;Sedlice,Dùl;;bus
49.3803001972755;13.9917350044885;31204;ST;Sedlice,Holu¹ice;;bus
49.3873611654041;13.983198866402;55071;ST;Sedlice,Mu¾etice,rozc.;;bus
49.3876227401381;13.9816214531346;31206;ST;Sedlice,Mu¾etice;;bus
49.3875555167409;13.9816595147242;31206;ST;Sedlice,Mu¾etice;;bus
49.3846505432553;13.9559040925318;31199;ST;Sedlice,,pila Hrubec;;bus
49.3845730844743;13.9552948767979;31199;ST;Sedlice,,pila Hrubec;;bus
49.377917232312;13.9440272948912;31195;ST;Sedlice,,dílny;;bus
49.3737842427225;13.9416812231179;31202;ST;Sedlice,,¹kola;;bus
49.3738579315351;13.9420538478564;31202;ST;Sedlice,,¹kola;;bus
49.3785337710932;13.9365545821599;31197;ST;Sedlice,,nám.;;bus
49.3783006010499;13.9366566747945;31197;ST;Sedlice,,nám.;;bus
49.3913967645705;13.9206529933927;31207;ST;Sedlice,Nìmèice;;bus
49.3553687409479;14.7009000642921;64191;TA;Planá n.Lu¾.,,Za mostem;;bus
48.6313032469671;14.1664662804627;57506;CK;Pøední Výtoò,,náves;;bus
49.3653551737758;14.0557127477789;56825;PI;Pøedotice,,u mostu;;bus
49.3652799022735;14.0555702191229;56825;PI;Pøedotice,,u mostu;;bus
49.1387767545398;13.9469040669026;63381;ST;Pøedslavice,Marèovice;;bus
49.279401263551;14.953831422122;30039;JH;Rosièka;;bus
49.2550814059525;13.8867594017917;33247;ST;Strakonice,,chat.obl.;;bus
49.25511501912;13.8873134905968;33247;ST;Strakonice,,chat.obl.;;bus
49.241179935574;13.8950232301844;22279;ST;Mutìnice;;bus
49.2328610184071;13.8683860965277;32550;ST;Sousedovice;;bus
49.232795382119;13.8684341277864;32550;ST;Sousedovice;;bus
49.2196137270474;13.8628849549486;18250;ST;Libìtice;;bus
49.21939995159;13.8629017966395;18250;ST;Libìtice;;bus
49.2115827062525;13.844232330162;37651;ST;Úlehle,©vejcarova Lhota,rozc.3.0;;bus
49.2115073043943;13.8443393671328;37651;ST;Úlehle,©vejcarova Lhota,rozc.3.0;;bus
49.2578624069542;13.9023024065199;33243;ST;Strakonice,,hrad;;bus
49.2579429440672;13.9023268308556;33243;ST;Strakonice,,hrad;;bus
49.2623092299588;13.9080384889878;48112;ST;Strakonice,,Ellerova-Hvìzda;;bus
49.2600906557026;13.9116740894081;33242;ST;Strakonice,,Ellerova-M©;;bus
49.2600856879178;13.912875751857;33242;ST;Strakonice,,Ellerova-M©;;bus
49.0491794431974;15.0372158053674;5214;JH;Èímìø,Sedlo;;bus
49.0491865694095;15.0372626705276;5214;JH;Èímìø,Sedlo;;bus
49.0476827796514;15.0382581753172;5215;JH;Èímìø,Sedlo,rozc.0.1;;bus
49.0477070550442;15.0383054144676;5215;JH;Èímìø,Sedlo,rozc.0.1;;bus
49.0416008655524;15.0543334735662;5210;JH;Èímìø,Lhota,rozc.0.1;;bus
49.0609418291018;15.0730874386794;5206;JH;Èímìø;;bus
49.0611407067827;15.0723116329716;5206;JH;Èímìø;;bus
49.0620567947856;15.1038351890369;5209;JH;Èímìø,Dobrá Voda;;bus
49.062042429446;15.1037577286485;5209;JH;Èímìø,Dobrá Voda;;bus
49.0438219463584;15.094158750805;5212;JH;Èímìø,Potoèná;;bus
49.040293401482;15.0895393431391;5213;JH;Èímìø,Potoèná,rozc.0.3;;bus
49.0400793308674;15.089572771144;5213;JH;Èímìø,Potoèná,rozc.0.3;;bus
49.0241415239328;15.1010361669687;23501;JH;Nová Bystøice,,høbitov;;bus
49.0243882710728;15.101111469704;23501;JH;Nová Bystøice,,høbitov;;bus
49.0208223674;15.07586550007;23517;JH;Nová Bystøice,Smrèná;;bus
49.0206847709329;15.0757355935947;23517;JH;Nová Bystøice,Smrèná;;bus
49.0245874122387;15.0504587943084;23513;JH;Nová Bystøice,Nový Vojíøov;;bus
49.024617377154;15.050424239858;23513;JH;Nová Bystøice,Nový Vojíøov;;bus
49.0203673646541;15.1042556884351;23499;JH;Nová Bystøice,,aut.nádr.;1;bus
49.0203626754076;15.1045970427797;23499;JH;Nová Bystøice,,aut.nádr.;2;bus
49.020423228779;15.1046017925203;23499;JH;Nová Bystøice,,aut.nádr.;3;bus
49.0204847544169;15.1046063856662;23499;JH;Nová Bystøice,,aut.nádr.;4;bus
49.0205487088073;15.1046025236015;23499;JH;Nová Bystøice,,aut.nádr.;5;bus
49.0181073438104;15.1128236639704;23503;JH;Nová Bystøice,,Vídeòská;;bus
49.018006257125;15.1128049413067;23503;JH;Nová Bystøice,,Vídeòská;;bus
49.0069115083557;15.1295182767026;23506;JH;Nová Bystøice,Artolec;;bus
49.006926409701;15.1295903569812;23506;JH;Nová Bystøice,Artolec;;bus
49.0043687436171;15.1607003728923;23512;JH;Nová Bystøice,Mýtinky;;bus
49.0839938996142;15.1261590834027;5311;JH;Èlunek,Kunìjov;;bus
49.083971444264;15.1260740222645;5311;JH;Èlunek,Kunìjov;;bus
49.1118531223096;15.128736346237;5310;JH;Èlunek;;bus
49.1119399508788;15.1286296413021;5310;JH;Èlunek;;bus
49.113250981702;15.1572559799012;5312;JH;Èlunek,Lomy;;bus
49.1131753521908;15.1568716659699;5312;JH;Èlunek,Lomy;;bus
49.121343965534;15.1906145878927;17123;JH;Kun¾ak,,nám.;;bus
49.1214982692105;15.1911314592045;17123;JH;Kun¾ak,,nám.;;bus
49.12162755411;15.1911398063429;17123;JH;Kun¾ak,,nám.;;bus
49.0854654590434;15.1890402306791;17125;JH;Kun¾ak,Kaproun,háj.;;bus
49.0854915381709;15.1890999101841;17125;JH;Kun¾ak,Kaproun,háj.;;bus
49.0773862649578;15.181735285157;17124;JH;Kun¾ak,Kaproun;;bus
49.077385669948;15.1817895319158;17124;JH;Kun¾ak,Kaproun;;bus
49.0741563952189;15.180141246985;17126;JH;Kun¾ak,Kaproun,rozc.0.5;;bus
49.0741082205242;15.1800913124196;17126;JH;Kun¾ak,Kaproun,rozc.0.5;;bus
49.0662079348932;15.1584069759056;23515;JH;Nová Bystøice,Senotín,¾el.st.;;bus
49.0661534508203;15.1584281690682;23515;JH;Nová Bystøice,Senotín,¾el.st.;;bus
49.0641135910472;15.1451926818611;23514;JH;Nová Bystøice,Senotín;;bus
49.0641582752596;15.145262871841;23514;JH;Nová Bystøice,Senotín;;bus
49.0492582650673;15.1350478246286;23508;JH;Nová Bystøice,Hùrky;;bus
49.0458126500348;15.1625810657019;23507;JH;Nová Bystøice,Blato,rozc.0.6;;bus
49.0457439746223;15.1626019770583;23507;JH;Nová Bystøice,Blato,rozc.0.6;;bus
49.0578849843307;15.1693008333156;23511;JH;Nová Bystøice,Klenová;;bus
49.0577625039212;15.1693437485228;23511;JH;Nová Bystøice,Klenová;;bus
49.0292079630825;15.1305877245797;23505;JH;Nová Bystøice,Albeø,rozc.II;;bus
49.029149581792;15.1306758312976;23505;JH;Nová Bystøice,Albeø,rozc.II;;bus
49.030009546754;15.1400732869842;23502;JH;Nová Bystøice,,Osika;;bus
49.0296632161386;15.1408795469269;23502;JH;Nová Bystøice,,Osika;;bus
49.0244567922846;15.1587206242164;23509;JH;Nová Bystøice,Klá¹ter I;;bus
49.0248447444665;15.1751155055232;23510;JH;Nová Bystøice,Klá¹ter II;;bus
49.0248874865661;15.1750686273028;23510;JH;Nová Bystøice,Klá¹ter II;;bus
49.012117488084;15.2179936093738;23516;JH;Nová Bystøice,Skalka;;bus
49.0120948714622;15.2178086791593;23516;JH;Nová Bystøice,Skalka;;bus
49.004497867937;15.2388539583724;32984;JH;Staré Mìsto p.Land.,Podlesí;;bus
49.0045535249766;15.2389181166423;32984;JH;Staré Mìsto p.Land.,Podlesí;;bus
49.0028884049513;15.2531589049893;32982;JH;Staré Mìsto p.Land.;;bus
49.0029784850357;15.2531988870195;32982;JH;Staré Mìsto p.Land.;;bus
49.0038888510284;15.2534597079746;58546;JH;Staré Mìsto p.Land.,,nám.;;bus
49.0038831790493;15.2535823876193;58546;JH;Staré Mìsto p.Land.,,nám.;;bus
49.0262911988748;15.2302198996444;32983;JH;Staré Mìsto p.Land.,Land¹tejn;;bus
49.0262961819189;15.2301271158683;32983;JH;Staré Mìsto p.Land.,Land¹tejn;;bus
49.0251867365045;15.2255527830863;32985;JH;Staré Mìsto p.Land.,Pomezí;;bus
49.025248985465;15.2255332866149;32985;JH;Staré Mìsto p.Land.,Pomezí;;bus
49.028082786337;15.2846185585569;32052;JH;Slavonice,Stálkov;;bus
49.0281797370355;15.2842891921973;32052;JH;Slavonice,Stálkov;;bus
49.0067498469192;15.3299243352259;43817;JH;Slavonice,,Bejèkùv mlýn;;bus
49.0067944031228;15.3298926563;43817;JH;Slavonice,,Bejèkùv mlýn;;bus
49.0007041882534;15.3433566666232;32045;JH;Slavonice,,OPK;;bus
49.000729997495;15.3434573734213;32045;JH;Slavonice,,OPK;;bus
48.9960833312848;15.3483217882388;32048;JH;Slavonice,,¾el.st.;;bus
48.9960583702969;15.3484572024826;32048;JH;Slavonice,,¾el.st.;;bus
48.9946058178982;15.3353679957715;32050;JH;Slavonice,Maøí¾,rozc.1.0;;bus
48.9946600649544;15.3353219903656;32050;JH;Slavonice,Maøí¾,rozc.1.0;;bus
49.0037760780994;15.3043321116806;32049;JH;Slavonice,Kadolec;;bus
49.0037312762181;15.3042219550886;32049;JH;Slavonice,Kadolec;;bus
48.9985100475552;15.3535385713118;32043;JH;Slavonice,,aut.nádr.;;bus
48.9984768584678;15.3536083222189;32043;JH;Slavonice,,aut.nádr.;;bus
48.9984487580593;15.3536842699964;32043;JH;Slavonice,,aut.nádr.;;bus
48.9984213217451;15.3537477716354;32043;JH;Slavonice,,aut.nádr.;;bus
48.998381907194;15.3537987130114;32043;JH;Slavonice,,aut.nádr.;;bus
48.996011720617;15.35778466816;32046;JH;Slavonice,,Otavan;;bus
48.99607220678;15.3578481784659;32046;JH;Slavonice,,Otavan;;bus
49.0011191196121;15.3513842123373;32047;JH;Slavonice,,¹kola;;bus
49.0141348841852;15.3747116665338;52333;JH;Slavonice,Muti¹ov;;bus
49.0612182452077;15.2673530164664;4999;JH;Èeský Rudolec,Matìjovec;;bus
49.0612748054007;15.2673642511917;4999;JH;Èeský Rudolec,Matìjovec;;bus
49.0682875162682;15.3243134336415;4992;JH;Èeský Rudolec,,po¹ta;;bus
49.0683276114896;15.3244452599913;4992;JH;Èeský Rudolec,,po¹ta;;bus
49.0547933981071;15.3092609192292;5002;JH;Èeský Rudolec,Peníkov;;bus
49.0547929205305;15.3093938903902;5002;JH;Èeský Rudolec,Peníkov;;bus
49.044538509354;15.3040534334882;5003;JH;Èeský Rudolec,Stojeèín,rozc.0.1;;bus
49.0445572943015;15.3039407338724;5003;JH;Èeský Rudolec,Stojeèín,rozc.0.1;;bus
49.02765519109;15.3357636647874;32053;JH;Slavonice,Vlastkovec;;bus
49.0277120173322;15.3357546911925;32053;JH;Slavonice,Vlastkovec;;bus
49.0165880200779;15.341757945745;32054;JH;Slavonice,Vlastkovec,rozc.2.0;;bus
49.0287063310423;15.351152708115;32051;JH;Slavonice,Rubá¹ov;;bus
48.9022989075101;14.2650416448864;16797;CK;Køem¾e,Louèej,U Barto¹ù;;bus
48.8987834955664;14.2730179544459;16796;CK;Køem¾e,Louèej;;bus
49.3918773488164;13.9203707806801;31207;ST;Sedlice,Nìmèice;;bus
49.4006729964122;13.9045721046187;1518;ST;Blatná,Hnìvkov;;bus
49.365428898179;13.9746774357859;31205;ST;Sedlice,Holu¹ice,rozc.2.0;;bus
49.3651544432488;13.9754816003811;31205;ST;Sedlice,Holu¹ice,rozc.2.0;;bus
49.3609903374535;13.9875618310828;31198;ST;Sedlice,,obora myslivna;;bus
49.3607028704351;13.9877842368264;31198;ST;Sedlice,,obora myslivna;;bus
49.2570431476492;13.9157643016824;33240;ST;Strakonice,,aut.nádr.;5;bus
49.2569919771964;13.9155106266123;33240;ST;Strakonice,,aut.nádr.;6;bus
49.2569453862722;13.9152732496768;33240;ST;Strakonice,,aut.nádr.;7;bus
49.2568979022176;13.9150442650398;33240;ST;Strakonice,,aut.nádr.;8;bus
49.2570006366363;13.9149944202238;33240;ST;Strakonice,,aut.nádr.;12;bus
49.2570560197779;13.9152762996627;33240;ST;Strakonice,,aut.nádr.;11;bus
49.2571077300736;13.9155394927742;33240;ST;Strakonice,,aut.nádr.;10;bus
49.25715750182;13.9157928178569;33240;ST;Strakonice,,aut.nádr.;9;bus
49.2572761092793;13.9158223969516;33240;ST;Strakonice,,aut.nádr.;13;bus
49.257226105845;13.9155690127234;33240;ST;Strakonice,,aut.nádr.;14;bus
49.2571741547072;13.915305759689;33240;ST;Strakonice,,aut.nádr.;15;bus
49.2572677661447;13.9148729692976;33240;ST;Strakonice,,aut.nádr.;21;bus
49.2573159383762;13.9151165791753;33240;ST;Strakonice,,aut.nádr.;20;bus
49.2573464921896;13.9155990329077;33240;ST;Strakonice,,aut.nádr.;17;bus
49.2573969934036;13.9158525424861;33240;ST;Strakonice,,aut.nádr.;16;bus
49.2568224614596;13.9152180585065;33240;ST;Strakonice,,aut.nádr.;3;bus
49.2569221005652;13.9157341148101;33240;ST;Strakonice,,aut.nádr.;1;bus
49.2568724640084;13.9154804349543;33240;ST;Strakonice,,aut.nádr.;2;bus
49.2573096170911;13.9148539405145;33240;ST;Strakonice,,aut.nádr.;;bus
49.2573712512108;13.9151623009491;33240;ST;Strakonice,,aut.nádr.;;bus
49.2574117678561;13.915365012444;33240;ST;Strakonice,,aut.nádr.;;bus
49.2574529368097;13.9155709947667;33240;ST;Strakonice,,aut.nádr.;;bus
49.257294022924;13.9153356506666;33240;ST;Strakonice,,aut.nádr.;18;bus
49.1632758188216;14.9507707320811;13444;JH;Jindøichùv Hradec,Dìbolín,¾el.st.;;bus
49.1782328344731;14.938179646221;39060;JH;Velký Ratmírov;;bus
49.1781482128844;14.9382629138992;39060;JH;Velký Ratmírov;;bus
49.1762815455373;14.9786766010659;47317;JH;Jindøichùv Hradec,,ba¾antnice;;bus
49.1763246550138;14.9787303760245;47317;JH;Jindøichùv Hradec,,ba¾antnice;;bus
49.1727616387895;15.0282072580584;9925;JH;Horní Skrýchov;;bus
49.1727050596264;15.0282855372257;9925;JH;Horní Skrýchov;;bus
49.1620631879581;15.0141465685204;13447;JH;Jindøichùv Hradec,Dolní Skrýchov;;bus
49.1654363711859;15.0154214872954;53391;JH;Jindøichùv Hradec,Dolní Skrýchov,obec;;bus
49.153812929826;15.0052940988397;13402;JH;Jindøichùv Hradec,,aut.nádr.;20;bus
49.1538644114339;15.0050573814224;13402;JH;Jindøichùv Hradec,,aut.nádr.;19;bus
49.1539124487455;15.0048130096652;13402;JH;Jindøichùv Hradec,,aut.nádr.;18;bus
49.1539587011369;15.0045821883098;13402;JH;Jindøichùv Hradec,,aut.nádr.;17;bus
49.1540092047865;15.0043362066561;13402;JH;Jindøichùv Hradec,,aut.nádr.;16;bus
49.1385473686078;15.0090171695516;13413;JH;Jindøichùv Hradec,,kasárna;;bus
49.1328248206514;15.0161507062298;13419;JH;Jindøichùv Hradec,,mlékárna;;bus
49.1328508028716;15.015988183594;13419;JH;Jindøichùv Hradec,,mlékárna;;bus
49.1311384347563;15.0180934784133;13407;JH;Jindøichùv Hradec,,høbitov;;bus
49.1312477777456;15.0181802679918;13407;JH;Jindøichùv Hradec,,høbitov;;bus
49.1259212099311;15.0245260799406;13406;JH;Jindøichùv Hradec,,Fruko;;bus
49.1140530589747;15.0434302555687;10224;JH;Horní Pìna,,rozc.Hrutkov 1.2;;bus
49.1142212185623;15.0434841838933;10224;JH;Horní Pìna,,rozc.Hrutkov 1.2;;bus
49.1037532148449;15.0432076379762;9866;JH;Horní Pìna;;bus
49.10361722506;15.043211164128;9866;JH;Horní Pìna;;bus
49.1104728496578;15.021792758299;47310;JH;Dolní Pìna;;bus
49.1104250496427;15.0217954815541;47310;JH;Dolní Pìna;;bus
49.1126368945474;14.9983425143096;47319;JH;Jindøichùv Hradec,Horní ®ïár,rozc.;;bus
49.1125064147401;14.998477096629;47319;JH;Jindøichùv Hradec,Horní ®ïár,rozc.;;bus
49.1123679352954;14.9961140261743;13449;JH;Jindøichùv Hradec,Horní ®ïár,host.;;bus
49.1127400010188;14.9970087405068;13449;JH;Jindøichùv Hradec,Horní ®ïár,host.;;bus
49.2512614544068;13.912491464545;33284;ST;Strakonice,,Volyòská;;bus
49.2514434280438;13.9128602290541;33284;ST;Strakonice,,Volyòská;;bus
49.235613223142;13.9094320365809;29333;ST;Rado¹ovice,,silo;;bus
49.2353752895152;13.8991268504848;29331;ST;Rado¹ovice;;bus
49.2530195956994;13.9053301185757;33264;ST;Strakonice,,Prácheòská;;bus
49.2432142509507;13.9030959502243;22280;ST;Strakonice,,rozc.Mutìnice 0.1;;bus
49.2314192268855;13.9146220299914;29332;ST;Rado¹ovice,,rozc.0.5;;bus
49.2317176919487;13.9149277322502;29332;ST;Rado¹ovice,,rozc.0.5;;bus
49.2186678596161;13.8949513252721;28574;ST;Pøední Zborovice;;bus
49.2184408079859;13.8945270065915;28574;ST;Pøední Zborovice;;bus
49.2096587098905;13.8880425553654;33585;ST;Strunkovice n.Vol.;;bus
49.1988898299953;13.8857188992125;22903;ST;Strunkovice n.Vol.,,rozc.Nìmìtice 0.5;;bus
49.1985987271671;13.8856409440232;22903;ST;Strunkovice n.Vol.,,rozc.Nìmìtice 0.5;;bus
49.1951907231038;13.8814253432058;22902;ST;Nìmìtice;;bus
49.1952386583426;13.8804780953152;22902;ST;Nìmìtice;;bus
49.1866944847907;13.8626758361461;23199;ST;Niho¹ovice;;bus
49.1849560857445;13.8521783133545;23200;ST;Niho¹ovice,,lom;;bus
49.1850711236765;13.8528270900892;23200;ST;Niho¹ovice,,lom;;bus
49.1939221858563;15.006192931584;13446;JH;Jindøichùv Hradec,Dolní Radouò,váha;;bus
49.193965891552;15.0062241563063;13446;JH;Jindøichùv Hradec,Dolní Radouò,váha;;bus
49.2008851108918;15.0035890643934;13445;JH;Jindøichùv Hradec,Dolní Radouò,¹kola;;bus
49.2011705850352;15.0035603900552;13445;JH;Jindøichùv Hradec,Dolní Radouò,¹kola;;bus
49.2193682429506;15.0142584780287;15550;JH;Kostelní Radouò;;bus
49.2194052124662;15.0142138236089;15550;JH;Kostelní Radouò;;bus
49.2231005751814;15.0106488891157;15551;JH;Kostelní Radouò,,ObÚ;;bus
49.2230812269249;15.0105661353744;15551;JH;Kostelní Radouò,,ObÚ;;bus
49.2516820541824;15.0506300553283;8261;JH;Hadravova Rosièka;;bus
49.2517971266866;15.0506885322251;8261;JH;Hadravova Rosièka;;bus
49.0739532856144;14.969762567284;17501;JH;Lásenice;;bus
49.0739993654058;14.9701922374212;17501;JH;Lásenice;;bus
49.0699798179793;14.9966362783096;17503;JH;Lásenice,,Novoveský dvùr;;bus
49.0699920021822;14.9967570099259;17503;JH;Lásenice,,Novoveský dvùr;;bus
49.0679033399863;15.0097115513774;5211;JH;Èímìø,Nová Ves,rozc.0.6;;bus
49.0677884073549;15.0099783007553;5211;JH;Èímìø,Nová Ves,rozc.0.6;;bus
49.0698289729239;15.048538649597;5207;JH;Èímìø,Bílá;;bus
49.0772243240021;15.0579422836692;5208;JH;Èímìø,Bílá,rozc.1.0;;bus
49.0768010112817;15.0580120869136;5208;JH;Èímìø,Bílá,rozc.1.0;;bus
49.0854563499063;15.0544025331622;9867;JH;Horní Pìna,,Hejlíèek;;bus
49.0854005113066;15.0543617995447;9867;JH;Horní Pìna,,Hejlíèek;;bus
49.1193776894642;15.0011727322206;13450;JH;Jindøichùv Hradec,Horní ®ïár,pískovna;;bus
49.1006986906449;14.9918141672591;6799;JH;Dolní ®ïár;;bus
49.1008566157328;14.9920348860235;6799;JH;Dolní ®ïár;;bus
49.0908397704505;14.9851569165432;6800;JH;Dolní ®ïár,Horní Lhota,rozc.0.2;;bus
49.090898645221;14.9855846390102;6800;JH;Dolní ®ïár,Horní Lhota,rozc.0.2;;bus
49.083664662501;14.9791444494531;17502;JH;Dolní ®ïár,,Lipovská Ba¹ta;;bus
49.0836446420023;14.9793005777968;17502;JH;Dolní ®ïár,,Lipovská Ba¹ta;;bus
49.0144576430331;14.6215189145537;18890;CB;Li¹ov,,høbitov;;bus
49.1591110826194;14.9559882443067;13443;JH;Jindøichùv Hradec,Dìbolín;;bus
49.1592607152707;14.9558867381179;13443;JH;Jindøichùv Hradec,Dìbolín;;bus
49.1542449858014;15.0042988349667;13402;JH;Jindøichùv Hradec,,aut.nádr.;6;bus
49.1541094397968;15.0043953846202;13402;JH;Jindøichùv Hradec,,aut.nádr.;11;bus
49.1540626814047;15.0046277585254;13402;JH;Jindøichùv Hradec,,aut.nádr.;12;bus
49.1541822693495;15.0045946486867;13402;JH;Jindøichùv Hradec,,aut.nádr.;7;bus
49.1541386263521;15.0048115344898;13402;JH;Jindøichùv Hradec,,aut.nádr.;8;bus
49.1540156733401;15.0048636732883;13402;JH;Jindøichùv Hradec,,aut.nádr.;13;bus
49.1540920652223;15.0050528686382;13402;JH;Jindøichùv Hradec,,aut.nádr.;9;bus
49.1540387861111;15.005308624718;13402;JH;Jindøichùv Hradec,,aut.nádr.;10;bus
49.1539202907478;15.0053550506955;13402;JH;Jindøichùv Hradec,,aut.nádr.;15;bus
49.1694300167747;13.8057456811949;5076;ST;Èestice,,¹kola;;bus
49.1692754171114;13.8053750423599;5076;ST;Èestice,,¹kola;;bus
49.1677296391147;13.803475303971;5074;ST;Èestice;1;bus
49.1674618488758;13.8035121666264;5074;ST;Èestice;2;bus
49.1675387162474;13.8037952401238;5074;ST;Èestice;3;bus
49.1608121686626;13.7759250272189;7215;ST;Døe¹ín;;bus
49.1606533563894;13.7762197350569;7215;ST;Døe¹ín;;bus
49.1637832314632;13.7792075270637;7217;ST;Døe¹ín,,rozc.0.2;;bus
49.1678742267174;13.7728956745741;7218;ST;Døe¹ín,Døe¹ínek;;bus
49.1681781961946;13.7719345073752;7218;ST;Døe¹ín,Døe¹ínek;;bus
49.1674789513569;13.7675461596237;50586;ST;Døe¹ín,Hoøej¹ice,rozc.0.2;;bus
49.1675412553704;13.7679731157719;50586;ST;Døe¹ín,Hoøej¹ice,rozc.0.2;;bus
49.1673658219391;13.7410850563143;7087;ST;Drá¾ov;;bus
49.1672177876563;13.7415582665479;7087;ST;Drá¾ov;;bus
49.1643339866174;13.7279007544429;7094;ST;Drá¾ov,Zálesí,Jednota;;bus
49.1631563107559;13.7233245462066;7096;ST;Drá¾ov,Zálesí,¹kola;;bus
49.1630392602402;13.7232299341385;7096;ST;Drá¾ov,Zálesí,¹kola;;bus
49.158565821868;13.7148045191375;7095;ST;Drá¾ov,Zálesí,samoty;;bus
49.158287975865;13.7146273009317;7095;ST;Drá¾ov,Zálesí,samoty;;bus
49.1642968307402;13.727874280573;7094;ST;Drá¾ov,Zálesí,Jednota;;bus
49.1603194949259;13.7385128048839;7088;ST;Drá¾ov,,rozc.1.0;;bus
49.1602526260215;13.7394527000277;7088;ST;Drá¾ov,,rozc.1.0;;bus
49.1558647883674;13.7528805127551;7090;ST;Drá¾ov,Dobr¹;;bus
49.1433722307884;13.7594334757737;7219;ST;Døe¹ín,Chval¹ovice;;bus
49.1431913646262;13.7581636524153;7219;ST;Døe¹ín,Chval¹ovice;;bus
49.1510321685443;13.7717962331222;7216;ST;Døe¹ín,,chat.obl.;;bus
49.1508779180823;13.771350943841;7216;ST;Døe¹ín,,chat.obl.;;bus
49.1460427289179;13.7662911483039;38005;ST;Døe¹ín,Chval¹ovice,rozc.Vacovice 1.8;;bus
49.146155060734;13.766411275307;38005;ST;Døe¹ín,Chval¹ovice,rozc.Vacovice 1.8;;bus
49.1427832812;13.7911472511437;38004;ST;Vacovice,,Kamení;;bus
49.1428542409165;13.7911316777828;38004;ST;Vacovice,,Kamení;;bus
49.143494488659;13.809890562286;5079;ST;Èestice,Kru¹lov;;bus
49.1463896106592;13.817942888182;48076;ST;Èestice,Kru¹lov,rozc.0.6;;bus
49.155559809597;13.817070071535;48077;ST;Èestice,Nuzín,rozc.1;;bus
49.1555287875335;13.8170329753797;48077;ST;Èestice,Nuzín,rozc.1;;bus
49.1574890705541;13.8221080294481;5081;ST;Èestice,Nuzín;;bus
49.1409566471437;13.8303279365322;5080;ST;Èestice,Nahoøany;;bus
49.1412571685;13.8327893414736;5080;ST;Èestice,Nahoøany;;bus
49.1538001581874;13.8479226568625;40095;ST;Volynì,Starov;;bus
49.154349795266;13.8489929126497;40095;ST;Volynì,Starov;;bus
49.1589203702632;13.865773839811;40096;ST;Volynì,Zechovice;;bus
49.1589422095065;13.8657356805406;40096;ST;Volynì,Zechovice;;bus
49.160182196778;13.8736541953848;40097;ST;Volynì,Zechovice,ACHP;;bus
49.1605632095538;13.8740061011479;40097;ST;Volynì,Zechovice,ACHP;;bus
49.1668063859439;13.8770710050909;40090;ST;Volynì,,Hradèany;;bus
49.16830038355;13.88605393211;40091;ST;Volynì,,M©;;bus
49.1682983236059;13.8861979236439;40091;ST;Volynì,,M©;;bus
49.1662201761543;13.8853710453266;40092;ST;Volynì,,nám.;;bus
49.1657332642396;13.8861204418478;40092;ST;Volynì,,nám.;;bus
49.1360876754513;13.864674023127;20218;ST;Malenice,Zle¹ice;;bus
49.1360395468311;13.8645537921032;20218;ST;Malenice,Zle¹ice;;bus
49.1306554232795;13.8622634882717;20219;ST;Malenice,Zle¹ice,U Ko¾ených;;bus
49.1306515937778;13.8624318987753;20219;ST;Malenice,Zle¹ice,U Ko¾ených;;bus
49.1259119631417;13.8813234215935;20217;ST;Malenice;;bus
49.1261242201705;13.8822332380295;20217;ST;Malenice;;bus
49.1438092479143;13.9115398904698;40094;ST;Volynì,Èernìtice;;bus
49.1498589146659;13.9063395710885;23219;ST;Volynì,Èernìtice,¾el.st.Ni¹ovice;;bus
49.1503029361549;13.9053435182105;23219;ST;Volynì,Èernìtice,¾el.st.Ni¹ovice;;bus
49.1573617221235;13.8983529307898;23218;ST;Ni¹ovice;;bus
49.1617215936869;13.8926603474152;40089;ST;Volynì,,Dobøanovec;;bus
49.1618590813351;13.8927559218933;40089;ST;Volynì,,Dobøanovec;;bus
49.1602168721843;13.9419019281045;67646;ST;Litochovice,,u rybníka;;bus
49.1658884899976;13.9439592847196;18964;ST;Litochovice,Neuslu¾ice;;bus
49.1658306012374;13.9439115137236;18964;ST;Litochovice,Neuslu¾ice;;bus
49.1725988438358;13.9622436742949;18965;ST;Litochovice,Støíte¾;;bus
49.1726309098202;13.9620420765709;18965;ST;Litochovice,Støíte¾;;bus
49.1723075108903;13.9806863968474;18966;ST;Skály,,rozc.Støíte¾ 1.9;;bus
49.1652590899954;13.97771367328;4406;ST;Èepøovice,Ovèín;;bus
49.165138595523;13.9775911181273;4406;ST;Èepøovice,Ovèín;;bus
49.1556703047802;13.974776966767;4402;ST;Èepøovice;;bus
49.1554273701416;13.9748979769533;4402;ST;Èepøovice;;bus
49.1455447564462;13.9621829470316;28602;ST;Pøedslavice,Kakovice;;bus
49.1453228607665;13.9830882368038;4404;ST;Èepøovice,Jiøetice;;bus
49.1455392535533;13.9831290729069;4404;ST;Èepøovice,Jiøetice;;bus
49.1365357390986;13.9923781427596;4405;ST;Èepøovice,Kojeèín;;bus
49.1366707752253;13.99246097757;4405;ST;Èepøovice,Kojeèín;;bus
49.1300688158869;14.0096934348338;7265;PT;Dub,Javornice,rozc.1.0;;bus
49.1299724888277;14.0095572168167;7265;PT;Dub,Javornice,rozc.1.0;;bus
49.1362861559516;14.0191117566131;606;ST;Krajníèko,Helfenburk,rozc.0.3;;bus
49.1365048226475;14.01939372772;606;ST;Krajníèko,Helfenburk,rozc.0.3;;bus
49.132337473235;14.0347393208266;15975;ST;Krajníèko,©tìtín;;bus
49.1320957953554;14.0351143714792;15975;ST;Krajníèko,©tìtín;;bus
49.1216711223303;14.0780894110593;598;ST;Bavorov,,nám.;1;bus
49.1214469280425;14.0788094109407;598;ST;Bavorov,,nám.;2;bus
49.1215290158798;14.0788615792699;598;ST;Bavorov,,nám.;3;bus
49.1315631949217;14.0500186954511;607;ST;Bavorov,Leskovec;;bus
49.1316427806924;14.0498351326316;607;ST;Bavorov,Leskovec;;bus
49.1368914224669;14.0425936174196;610;ST;Krajníèko,,rozc.Útì¹ov 0.5;;bus
49.1370148326374;14.0426012355119;610;ST;Krajníèko,,rozc.Útì¹ov 0.5;;bus
49.1475769751935;14.0292870366266;15974;ST;Krajníèko;;bus
49.1474771353627;14.0292724686223;15974;ST;Krajníèko;;bus
49.1583316259501;14.0302965462091;20657;ST;Mìkynec;;bus
49.1861639124684;14.026587922551;29174;ST;Radìjovice;;bus
49.1862140488578;14.0266287319986;29174;ST;Radìjovice;;bus
49.1827674725134;13.9939129810356;31640;ST;Skály;;bus
49.1833950720366;13.9929894222979;31640;ST;Skály;;bus
49.1891581635234;14.0025192481531;17240;ST;Kváskovice;;bus
49.1886544173438;14.0021189247845;17240;ST;Kváskovice;;bus
49.1995804539897;13.993987291313;25880;ST;Paraèov;;bus
49.2115946729468;13.9813160008428;48114;ST;Tøe¹ovice,,náves;;bus
49.2115579116777;13.9811688687687;48114;ST;Tøe¹ovice,,náves;;bus
49.2112235979609;13.979853824564;36839;ST;Tøe¹ovice;;bus
49.2111190705537;13.9799142904411;36839;ST;Tøe¹ovice;;bus
49.2107402473136;13.9646658372387;17155;ST;Kuøimany,,rozc.1.0;;bus
49.2037726006772;13.9681191612139;17154;ST;Kuøimany;;bus
49.2108053399428;13.9635636343589;17155;ST;Kuøimany,,rozc.1.0;;bus
49.2132678075196;13.9537606518463;21168;ST;Miloòovice,Sudkovice;;bus
49.2132477536712;13.9536424189268;21168;ST;Miloòovice,Sudkovice;;bus
49.2206237149383;13.9575516389031;21165;ST;Miloòovice;;bus
49.220475327433;13.9572785714199;21165;ST;Miloòovice;;bus
49.2189865289224;13.946912613552;21166;ST;Miloòovice,,rozc.1.0;;bus
49.2198222675842;13.9369217773765;21167;ST;Miloòovice,Nová Ves;;bus
49.2197903627929;13.936490457028;21167;ST;Miloòovice,Nová Ves;;bus
49.2314828072164;13.918822289662;29334;ST;Rado¹ovice,Kapsova Lhota;;bus
49.2315799982062;13.9189681588737;29334;ST;Rado¹ovice,Kapsova Lhota;;bus
48.9967144569677;14.4486599621936;56564;CB;Èeské Budìjovice,,U Hvízdala;;bus
48.9512406100624;14.4540205202739;26719;CB;Planá,,leti¹tì;;bus
48.9514866824459;14.4543834014846;26719;CB;Planá,,leti¹tì;;bus
48.9424161701681;14.4495898665244;26718;CB;Planá;;bus
48.9418860517877;14.4483172509317;26718;CB;Planá;;bus
48.9390212544534;14.4295835101488;9309;CB;Homole;;bus
48.9391695435423;14.4291551916781;9309;CB;Homole;;bus
48.9359667257107;14.4041491750925;9311;CB;Homole,Nové Homole;;bus
48.9310778558586;14.3926575262752;49164;CB;Homole,Nové Homole,Korosecký Dvùr;;bus
48.9232763379085;14.3741007957676;40143;CB;Vrábèe,,Nová hospoda;;bus
48.9231482051932;14.3731670890626;40143;CB;Vrábèe,,Nová hospoda;;bus
48.9172716100671;14.3576006386093;40144;CB;Vrábèe,,¾el.zast.;;bus
48.9172036914923;14.3577558756837;40144;CB;Vrábèe,,¾el.zast.;;bus
48.9270534967552;14.34412512145;40147;CB;Vrábèe,Slavèe;;bus
48.9142461537359;14.3480631187884;40148;CB;Vrábèe,Slavèe,rozc.2.0;;bus
48.9141756571813;14.3480969359601;40148;CB;Vrábèe,Slavèe,rozc.2.0;;bus
48.9087943935973;14.3261070338317;16798;CK;Køem¾e,Møíèí;;bus
48.9088878093832;14.3262217573097;16798;CK;Køem¾e,Møíèí;;bus
48.905407400761;14.3294698167366;16799;CK;Køem¾e,Møíèí,¾el.zast.rozc.;;bus
48.9054138129727;14.3295531527525;16799;CK;Køem¾e,Møíèí,¾el.zast.rozc.;;bus
48.9058731373004;14.3135338776892;16788;CK;Køem¾e,,Doubek;;bus
48.905905165805;14.313192563632;16788;CK;Køem¾e,,Doubek;;bus
48.9102251358064;14.3041911725412;16789;CK;Køem¾e,,Pasíèka;;bus
48.910168613861;14.3041318495062;16789;CK;Køem¾e,,Pasíèka;;bus
48.9166665325771;14.2982262219883;16793;CK;Køem¾e,Chlumeèek;;bus
48.9165110324105;14.2989257557709;16793;CK;Køem¾e,Chlumeèek;;bus
48.9220463212631;14.2957731416401;16800;CK;Køem¾e,Stupná;;bus
48.9221132429731;14.2959878711433;16800;CK;Køem¾e,Stupná;;bus
48.9284931916289;14.2921544136859;16801;CK;Køem¾e,Stupná,U Borku;;bus
48.9284347482228;14.2920315713703;16801;CK;Køem¾e,Stupná,U Borku;;bus
48.9352122554915;14.2782170466801;16794;CK;Køem¾e,Chmelná;;bus
48.9351232146991;14.2781594634151;16794;CK;Køem¾e,Chmelná;;bus
49.4882790219958;13.9536511159233;37935;ST;Uzenièky;;bus
49.4882696794499;13.9537710518235;37935;ST;Uzenièky;;bus
49.4733403096471;13.9597593612999;37934;ST;Uzenice;;bus
49.473330520934;13.9595312638365;37934;ST;Uzenice;;bus
49.4631876078985;13.9645788273891;22392;ST;My¹tice,Nev¾elice;;bus
49.4572649719345;13.9798268644376;22391;ST;My¹tice,Ko¾lí;;bus
49.4696713377728;13.9876983768988;22393;ST;My¹tice,Svobodka;;bus
49.4704310530933;13.9885629600587;22393;ST;My¹tice,Svobodka;;bus
48.9491423180581;14.2650041598147;23638;CK;Nová Ves,Hola¹ovice,rozc.;;bus
48.9491593292303;14.2648527464496;23638;CK;Nová Ves,Hola¹ovice,rozc.;;bus
48.9482670595023;14.2479311902042;23636;CK;Nová Ves;;bus
48.9525673361308;14.2337643753469;23637;CK;Nová Ves,Èeské Chalupy;;bus
48.9526120908258;14.2337527549606;23637;CK;Nová Ves,Èeské Chalupy;;bus
48.9536989976018;14.2086698554792;2724;CK;Brloh,Jaronín;;bus
48.9536543730177;14.2086545351699;2724;CK;Brloh,Jaronín;;bus
48.9466768744734;14.2127932887969;2729;CK;Brloh,Sedm Chalup;;bus
48.9466775933475;14.2128487567474;2729;CK;Brloh,Sedm Chalup;;bus
48.9286956799438;14.2200973412755;2718;CK;Brloh;;bus
48.9284029206941;14.220281094185;2718;CK;Brloh;;bus
48.9318720813098;14.2222679245636;2722;CK;Brloh,,ZD;;bus
48.9319442965423;14.2220243862585;2722;CK;Brloh,,ZD;;bus
48.9351169272391;14.2350819174517;2721;CK;Brloh,,u rybníka;;bus
48.9351678401091;14.2352007603647;2721;CK;Brloh,,u rybníka;;bus
48.9124228791604;14.2682042327919;16795;CK;Køem¾e,Lhotka,rozc.0.5;;bus
48.9123139911725;14.2682556998542;16795;CK;Køem¾e,Lhotka,rozc.0.5;;bus
48.9100428465258;14.2643145966191;54900;CK;Køem¾e,Lhotka;;bus
48.9100470030694;14.2642107243652;54900;CK;Køem¾e,Lhotka;;bus
48.8057943629802;14.3145484641218;4986;CK;Èeský Krumlov,Tavírna;;bus
49.0797742197221;13.9903591487684;50296;PT;Vlachovo Bøezí,Chocholatá Lhota;;bus
49.2129343885309;14.775862937172;6963;JH;Doòov;;bus
49.2102228438873;14.7867036874529;37633;JH;Újezdec,,rozc.0.3;;bus
49.2081864567824;14.7945243702056;41254;JH;Záhoøí,,rozc.1.0;;bus
49.1981709033056;14.8207260563711;26859;JH;Ple¹e,,host.;;bus
49.2190056618912;14.8412297119004;39624;JH;Vi¹òová;;bus
49.1798760725482;14.8496614011704;47320;JH;Karda¹ova Øeèice,,Palackého;;bus
49.1730718556746;14.8190132261929;13983;JH;Karda¹ova Øeèice,Nítovice;;bus
49.162366613078;14.8308665001283;13984;JH;Karda¹ova Øeèice,Øehoøinky;;bus
49.1692499616535;14.8344829236138;13985;JH;Karda¹ova Øeèice,Øehoøinky,samoty;;bus
49.1869971662585;14.8588806914278;13982;JH;Karda¹ova Øeèice,,¾el.st.;;bus
49.1832327674027;14.8901705502052;26918;JH;Pluhùv ®ïár,Plasná;;bus
49.1982609784576;14.8871127076355;26916;JH;Pluhùv ®ïár,Klenov;;bus
49.207568968291;14.8783954360066;26920;JH;Pluhùv ®ïár,Pohoøí;;bus
49.2416265556772;14.8846587126642;26913;JH;Pluhùv ®ïár,Èervená Lhota,rozc.1.0;;bus
49.2493578191806;14.8843013950045;26912;JH;Pluhùv ®ïár,Èervená Lhota;;bus
49.2493680816073;14.8840804923269;26912;JH;Pluhùv ®ïár,Èervená Lhota;;bus
49.2521128377455;14.892947657974;26915;JH;Pluhùv ®ïár,Ji¾ná,rozc.0.8;;bus
49.2546465466352;14.8955041387638;39351;JH;Vícemil,,rozc.1.0;;bus
49.1921336235469;14.9602942199208;19119;JH;Lodhéøov,Studnice;;bus
49.2095958371548;14.9633557046691;19117;JH;Lodhéøov,,¹kola;;bus
49.2143276013748;14.9606173088776;19116;JH;Lodhéøov,,ObÚ;;bus
49.2586956809394;14.9388985053818;5604;JH;De¹tná,,samoty;;bus
49.2455236909419;14.950206801249;5600;JH;De¹tná,,Brèík rozc.2.0;;bus
49.290198468416;14.9137908905024;3150;JH;Bøezina,,ÈSAD;;bus
49.2918938304375;14.9102047547481;3149;JH;Bøezina;;bus
49.2937112320386;14.9286794217125;7187;JH;Drunèe,,samoty;;bus
49.2962412574321;14.9361668657814;7186;JH;Drunèe;;bus
49.2865097422602;14.9520353026497;30040;JH;Rosièka,,cihelna;;bus
49.279318883796;14.9461413982175;30041;JH;Svìtce,,rozc.Rosièka 1.2;;bus
49.2706463293009;14.9150196253823;5599;JH;De¹tná,,areál ZD;;bus
49.2774473724972;14.8993826263381;5606;JH;De¹tná,Nový Dvùr;;bus
49.2862088443756;14.8858580946751;5605;JH;De¹tná,Lipovka;;bus
49.2933223107035;14.8749638731369;53456;JH;De¹tná,,rozc.Budislav;;bus
49.2781978875462;14.8828456337175;11794;TA;Chotìmice,,U Brusù;;bus
49.2653158522639;14.8361186045663;5751;TA;Dírná,Nová Ves;;bus
49.2392553331125;14.8195196546166;5755;TA;Dírná,Závsí;;bus
49.2277413558387;14.7954392520736;5750;TA;Dírná,L¾ín;;bus
49.2141421344133;14.7357520688523;30891;TA;Øípec;;bus
49.210184537851;14.7213378464706;39224;TA;Øípec,,rozvodna;;bus
49.2070291801027;14.7176923428156;39222;TA;Veselí n.Lu¾.,,Madeta;;bus
49.1933593950642;14.7159131365439;39215;TA;Veselí n.Lu¾.,,aut.st.;4;bus
49.1020614192874;14.6184032144828;20571;CB;Mazelov;;bus
49.1021499009322;14.6185060304899;20571;CB;Mazelov;;bus
49.1296662981097;14.6027974637531;50817;CB;Neplachov,,Obec;;bus
49.1297225005553;14.60281558856;50817;CB;Neplachov,,Obec;;bus
49.1181423810111;14.5893451710968;34735;CB;©evìtín,©vamberk;;bus
49.0995642604817;14.5725441397964;34733;CB;©evìtín,,nám.;;bus
49.0995018122377;14.5778344994865;34734;CB;©evìtín,,Zdrav.zásobování;;bus
49.0977935466127;14.5677244367867;34732;CB;©evìtín,,Na brankách;;bus
49.0895640981037;14.5473484992014;39694;CB;Vitín;;bus
49.0858773375142;14.5424200085286;39696;CB;Vitín,,Zadní díly;;bus
48.8989253152926;14.27309098434;16796;CK;Køem¾e,Louèej;;bus
48.8971202222595;14.2829442295793;16792;CK;Køem¾e,Louèej,Vlkanec;;bus
48.905393243536;14.2962708782577;16791;CK;Køem¾e,Chlum,rozc.0.3;;bus
48.9054767404363;14.2963494743285;16791;CK;Køem¾e,Chlum,rozc.0.3;;bus
48.903795486971;14.2936810017011;16790;CK;Køem¾e,Chlum;;bus
48.9037753902225;14.2937052727265;16790;CK;Køem¾e,Chlum;;bus
48.8819478317096;14.3157802290776;9295;CK;Holubov,Krasetín;;bus
48.9779292960502;14.4698316264805;4882;CB;Èeské Budìjovice,,U Zelené ratolesti;;bus
48.9780668088621;14.4699637475851;4882;CB;Èeské Budìjovice,,U Zelené ratolesti;;bus
48.9780239010978;14.4695884446794;4882;CB;Èeské Budìjovice,,U Zelené ratolesti;;bus
49.4577700406597;13.9732740879093;49169;ST;My¹tice,Ko¾lí,Drtina;;bus
49.4577429034522;13.9733558413993;49169;ST;My¹tice,Ko¾lí,Drtina;;bus
49.4521995246695;13.968909102158;22390;ST;My¹tice;;bus
49.4522269888945;13.9690279292596;22390;ST;My¹tice;;bus
49.4464985836345;13.9436686538956;22394;ST;My¹tice,Vahlovice;;bus
49.4466769319926;13.9428925976926;22394;ST;My¹tice,Vahlovice;;bus
49.4373333010449;13.9154496045369;1526;ST;Blatná,Skalièany;;bus
49.4374139905452;13.9156928331863;1526;ST;Blatná,Skalièany;;bus
49.5032356800887;13.8746687628956;799;ST;Bìlèice,,nám.;;bus
49.503539409581;13.874570754592;799;ST;Bìlèice,,nám.;;bus
49.5026122664107;13.8799596412338;801;ST;Bìlèice,,u knihovny;;bus
49.5026752238264;13.879381361552;801;ST;Bìlèice,,u knihovny;;bus
49.5035710463655;13.884434888077;800;ST;Bìlèice,,¾el.st.;;bus
49.5037513552817;13.8850064914391;800;ST;Bìlèice,,¾el.st.;;bus
49.5025041730616;13.8853162485312;800;ST;Bìlèice,,rozc.k nádr.0.3;;bus
49.4949479250609;13.9184737382307;807;ST;Bìlèice,Podruhlí;;bus
49.4950197754768;13.9183978248326;807;ST;Bìlèice,Podruhlí;;bus
49.4897737467732;13.9292568313449;804;ST;Bìlèice,Hosti¹ovice;;bus
49.4896540425328;13.929111388443;804;ST;Bìlèice,Hosti¹ovice;;bus
49.4869897382787;13.926167479235;806;ST;Bìlèice,Hosti¹ovice,u rybníka;;bus
49.486888997091;13.9258611770998;806;ST;Bìlèice,Hosti¹ovice,u rybníka;;bus
49.4572093430286;13.7827464917305;19083;ST;Lnáøe,,støed;;bus
49.4601230586222;13.7862783817689;48095;ST;Lnáøe,,U Pøístavu;;bus
49.4607332844096;13.7862547447192;48095;ST;Lnáøe,,U Pøístavu;;bus
49.4713095513508;13.7722653184226;19086;ST;Lnáøe,,U Barochù;;bus
49.4712347801393;13.7722412129735;19086;ST;Lnáøe,,U Barochù;;bus
49.477304553373;13.7661478638438;19087;ST;Pøedmíø,,U Èervenkù;;bus
49.4772386500913;13.7661106632798;19087;ST;Pøedmíø,,U Èervenkù;;bus
49.4814096609304;13.758842096801;51950;ST;Pøedmíø,,rozc.1.0;;bus
49.481401499137;13.7587742220641;51950;ST;Pøedmíø,,rozc.1.0;;bus
49.4886201490814;13.7692266732972;47195;ST;Pøedmíø;;bus
49.4887150996444;13.7691524219323;47195;ST;Pøedmíø;;bus
49.4884109459124;13.7631442038532;28567;ST;Pøedmíø,Zámlyní;;bus
49.4883597532753;13.7632047431032;28567;ST;Pøedmíø,Zámlyní;;bus
49.1770295461137;14.7918728948482;7050;TA;Drahov,,Vøesná;;bus
49.0150506537712;14.4960398389698;2055;CB;Borek,,rozc.Úsilné 1.0;;bus
49.4371870147317;13.8098526675009;35808;ST;Tchoøovice;;bus
49.4371786337105;13.8100641012817;35808;ST;Tchoøovice;;bus
49.4299856517909;13.8285287642615;35809;ST;Tchoøovice,,Kupcovy;;bus
49.4305244657257;13.83170450645;35809;ST;Tchoøovice,,Kupcovy;;bus
49.4241828689558;13.8627285057879;1501;ST;Blatná,,Vrbenská;;bus
49.4241311716799;13.862818857212;1501;ST;Blatná,,Vrbenská;;bus
49.4155176070951;13.8527114438564;13659;ST;Blatná,,Lhotka rozc.1.0;;bus
49.415505273117;13.8526042989548;13659;ST;Blatná,,Lhotka rozc.1.0;;bus
49.4077844785127;13.8328837303175;13661;ST;Kadov,Mraèov,rozc.1.0;;bus
49.404012510181;13.807720560382;13663;ST;Kadov,Vrbno;;bus
49.4038932263233;13.8079119785628;13663;ST;Kadov,Vrbno;;bus
49.4033255600623;13.776643557995;13657;ST;Kadov;;bus
49.403499841487;13.7764483422267;13657;ST;Kadov;;bus
49.4034553385349;13.7763306756944;13658;ST;Kadov,,náves;;bus
49.4130292230217;13.7814935408958;13662;ST;Kadov,Pole;;bus
49.4132003623645;13.7812688917681;13662;ST;Kadov,Pole;;bus
49.4027448353936;13.7749189026583;13658;ST;Kadov,,náves;;bus
49.3925083595691;13.7746634422272;13660;ST;Kadov,Lnáøský Málkov;;bus
49.392442614786;13.7746405044159;13660;ST;Kadov,Lnáøský Málkov;;bus
49.3737134394925;13.7938038048497;4265;ST;Èeèelovice;;bus
49.3741147118818;13.7949276526303;4265;ST;Èeèelovice;;bus
49.3777752851301;13.8288408169888;41144;ST;Záboøí;;bus
49.390215337498;13.8386745870831;17619;ST;La¾ánky;;bus
49.3902242357452;13.8385512516087;17619;ST;La¾ánky;;bus
49.4005248543899;13.8548202575357;1514;ST;Blatná,Blatenka;;bus
49.4006678105424;13.8549495970846;1514;ST;Blatná,Blatenka;;bus
49.4138124121886;13.8729265815087;19934;ST;Maèkov,,¾el.pøejezd;;bus
49.413785415514;13.8728345098421;19934;ST;Maèkov,,¾el.pøejezd;;bus
49.4203761104138;13.8773680910263;1509;ST;Blatná,,SOU;;bus
49.4777550752945;13.9166920150354;37937;ST;Uzenièky,Èernívsko,rozc.Èernívsko 2.0;;bus
49.4776595601323;13.9165962294257;37937;ST;Uzenièky,Èernívsko,rozc.Èernívsko 2.0;;bus
49.4753773715631;13.9047359252431;1516;ST;Blatná,Drahenický Málkov,I;;bus
49.4753270432227;13.9047718411466;1516;ST;Blatná,Drahenický Málkov,I;;bus
49.4724190318769;13.9005398843452;1517;ST;Blatná,Drahenický Málkov,II;;bus
49.4724053509676;13.900718029864;1517;ST;Blatná,Drahenický Málkov,II;;bus
49.4571387990909;13.9017126798782;1125;ST;Bezdìdovice,Dob¹ice,samoty rozc.1.0;;bus
49.4497446548863;13.9012918893613;11588;ST;Bezdìdovice,,rozc.Chobot 3.0;;bus
49.4497308401679;13.9013437536894;11588;ST;Bezdìdovice,,rozc.Chobot 3.0;;bus
49.4435677695473;13.8982081075225;1126;ST;Bezdìdovice,Pa¹tiky;;bus
49.4434964081377;13.898285085084;1126;ST;Bezdìdovice,Pa¹tiky;;bus
49.4529935465787;13.914696894232;11589;ST;Chobot,Újezd u Skalièan,rozc.0.8;;bus
49.4529971602659;13.9148622580803;11589;ST;Chobot,Újezd u Skalièan,rozc.0.8;;bus
49.4627688798403;13.9340204424358;11587;ST;Chobot;;bus
49.4628237810153;13.9339746732936;11587;ST;Chobot;;bus
49.4740380418016;13.9371099904089;37936;ST;Uzenièky,Èernívsko;;bus
49.4831102097324;13.8395574172688;10016;ST;Hornosín;;bus
49.4852199804205;13.8681224090286;814;ST;Bìlèice,Závi¹ín;;bus
49.4852619278429;13.8681239314594;814;ST;Bìlèice,Závi¹ín;;bus
49.4987868806452;13.8750266548682;803;ST;Bìlèice,,ZD;;bus
49.4988032528386;13.874921283779;803;ST;Bìlèice,,ZD;;bus
49.5022404641091;13.8612501686047;813;ST;Bìlèice,Záhrobí,rozc.1.0;;bus
49.5022011376385;13.8613640339197;813;ST;Bìlèice,Záhrobí,rozc.1.0;;bus
49.5007042939169;13.8462719357972;810;ST;Bìlèice,Újezdec,mlýn;;bus
49.5006680909705;13.8463343254912;810;ST;Bìlèice,Újezdec,mlýn;;bus
49.5006140107848;13.8324354102044;809;ST;Bìlèice,Újezdec;;bus
49.5005742123339;13.8317483548007;809;ST;Bìlèice,Újezdec;;bus
49.5147006870744;13.8208590778814;808;ST;Bìlèice,Tisov;;bus
49.5151728615763;13.8211750285942;808;ST;Bìlèice,Tisov;;bus
49.5078008455771;13.7971777869956;3135;ST;Bøezí;;bus
49.5076024718824;13.797156590199;3135;ST;Bøezí;;bus
49.4720925013133;13.7865783589189;19088;ST;Lnáøe,Zahorèice;;bus
49.4642787036446;13.8260561853996;14868;ST;Kocelovice;;bus
49.4641847399503;13.8258009594362;14868;ST;Kocelovice;;bus
49.4464446853743;13.8360022273605;8284;ST;Hajany;;bus
49.4457064152009;13.8367809842842;8284;ST;Hajany;;bus
49.4367967394149;13.8649300033677;1525;ST;Blatná,Øeèice,dílny ZPK;;bus
49.4367561675456;13.8648273779123;1525;ST;Blatná,Øeèice,dílny ZPK;;bus
49.439841250764;13.8550394701862;11521;ST;Chlum,,rozc.1.0;;bus
49.446458155353;13.8509705413012;11520;ST;Chlum;;bus
49.4537093195262;13.7941534332839;48093;ST;Lnáøe,,Pod Klá¹terem;;bus
49.4536625577557;13.7943824724642;48093;ST;Lnáøe,,Pod Klá¹terem;;bus
49.4570366749398;13.7838437050207;19083;ST;Lnáøe,,støed;;bus
49.1873596120109;14.708133521008;39227;TA;Veselí n.Lu¾.,,U kina;;bus
49.1864641672316;14.7013645460869;39220;TA;Veselí n.Lu¾.,,kult.dùm;;bus
49.1262034445085;14.6038165674143;22950;CB;Neplachov;;bus
48.9845441480303;14.4717957833509;49711;CB;Èeské Budìjovice,,Dru¾ba-IGY;;bus
49.0202559467958;14.4984225979067;2054;CB;Borek;;bus
49.0387695420334;14.4757182718226;10207;CB;Hosín;;bus
49.0440642991334;14.4927215599423;10208;CB;Hosín,,leti¹tì;;bus
49.0501873327563;14.5107651235952;11890;CB;Chotýèany,,VETAS;;bus
49.0443745611559;14.5067539701352;10212;CB;Hosín,,rozc.Chýòava;;bus
49.0426562921191;14.5067652486171;54895;CB;Hosín,,Chýòava;;bus
49.0380714055283;14.5053484666796;10213;CB;Hosín,,Chýòava u Nedvìdù;;bus
49.0519169291893;14.5130088704166;18906;CB;Li¹ov,Lhotice,rozc.1.0;;bus
49.0547722511362;14.5329763793073;18905;CB;Li¹ov,Lhotice;;bus
49.0428375967896;14.5550116104964;18896;CB;Li¹ov,Èervený Újezdec;;bus
49.0599150985871;14.5664440991448;18903;CB;Li¹ov,Kolný;;bus
49.053398776315;14.5840057765961;18910;CB;Li¹ov,Velechvín,U køí¾ku;;bus
49.050658182361;14.5865317293302;18909;CB;Li¹ov,Velechvín;;bus
49.0428223954349;14.6041210330824;18901;CB;Li¹ov,Hrutov;;bus
49.0153186986225;14.6120174742424;18893;CB;Li¹ov,,nám.;;bus
49.031841664048;14.6038309390647;18904;CB;Li¹ov,Levín;;bus
48.9933964358459;14.6250956051183;11347;CB;Hvozdec;;bus
49.0161191912455;14.6261829732567;18891;CB;Li¹ov,,Jitona;;bus
49.0138252506289;14.6524212825479;18908;CB;Li¹ov,Sosní;;bus
49.01670951289;14.6656458538547;18897;CB;Li¹ov,Dolní Miletín;;bus
49.0164104708798;14.6730308252167;18899;CB;Li¹ov,Horní Miletín;;bus
49.0404712618444;14.7296332830282;36764;JH;Tøeboò,,Pøeseka;;bus
49.0175989506309;14.7435670905817;36757;JH;Tøeboò,Bøilice;;bus
49.0124152067023;14.7560123615175;36740;JH;Tøeboò,,rozc.¾el.st.;;bus
49.0071833774836;14.4462059882875;4844;CB;Èeské Budìjovice,,Èeské Vrbné;;bus
49.4274288365183;14.8662300036873;6529;TA;Dolní Hoøice,Poøín,rozc.3.0;;bus
49.0151531598806;14.7601335406548;36732;JH;Tøeboò,,¾el.st.;;bus
49.014602302439;14.7554673624092;36740;JH;Tøeboò,,rozc.¾el.st.;;bus
49.0323936019111;14.7504881731629;36736;JH;Tøeboò,,Gigant Ro¾mberk;;bus
49.0461380015615;14.751098615707;36741;JH;Tøeboò,,Ro¾mberk rybník rozc.1.0;;bus
49.0550283430272;14.7505018763935;19870;JH;Lu¾nice,,¾el.st.;;bus
49.0611334501841;14.7547494119246;19868;JH;Lu¾nice;;bus
49.0759298237887;14.6845054088285;32287;JH;Smr¾ov;;bus
49.1050345002331;14.6842774970418;41126;JH;Záblatí;;bus
49.1051366592841;14.6842587146154;41126;JH;Záblatí;;bus
49.0979610092121;14.6346334465211;20572;CB;Mazelov,,velkovýkrmna;;bus
49.1765146063702;13.8389238581455;5078;ST;Niho¹ovice,,rozc.Doubravice u Volynì 0.3;;bus
49.1765872018944;13.8392557319922;5078;ST;Niho¹ovice,,rozc.Doubravice u Volynì 0.3;;bus
49.1776137235893;13.828207291209;5077;ST;Èestice,Doubravice u Volynì;;bus
49.1774231886217;13.8283501305872;5077;ST;Èestice,Doubravice u Volynì;;bus
49.1760276057867;13.8192048049104;5075;ST;Èestice,,Na ©pici;;bus
49.176079468478;13.8185917899834;5075;ST;Èestice,,Na ©pici;;bus
48.8587465280647;14.3453336229278;41898;CK;Zlatá Koruna,Ple¹ovice,Záti¹í;;bus
48.8587478778285;14.3452350590559;41898;CK;Zlatá Koruna,Ple¹ovice,Záti¹í;;bus
48.8648579854141;14.3475243469517;41897;CK;Zlatá Koruna,Ple¹ovice,dráha;;bus
48.8648526252419;14.3476090023754;41897;CK;Zlatá Koruna,Ple¹ovice,dráha;;bus
48.8777587972333;14.3484250774433;9299;CK;Holubov,Tøísov,Na kopci;;bus
48.8777525643347;14.3483371373262;9299;CK;Holubov,Tøísov,Na kopci;;bus
48.8834044657807;14.3467782464836;9298;CK;Holubov,Tøísov;;bus
48.883374459394;14.3466825960958;9298;CK;Holubov,Tøísov;;bus
48.8915531498765;14.3349481190565;9293;CK;Holubov,,Planinka;;bus
48.8921292637305;14.334655706332;9293;CK;Holubov,,Planinka;;bus
48.8948561981727;14.3286437891829;9294;CK;Holubov,,rozc.1.0;;bus
48.8948052176049;14.3286600480716;9294;CK;Holubov,,rozc.1.0;;bus
48.8947884301057;14.3274693589115;9291;CK;Holubov,,Artypa;;bus
48.8945779556831;14.3275454644468;9291;CK;Holubov,,Artypa;;bus
48.8928125805441;14.3248597992196;9292;CK;Holubov,,¾el.st.;;bus
48.8928166301814;14.3251097534996;9292;CK;Holubov,,¾el.st.;;bus
48.8886795654304;14.3232981312527;9290;CK;Holubov;;bus
48.905136954946;14.3048309404031;16787;CK;Køem¾e;;bus
48.9052235998238;14.3047368370399;16787;CK;Køem¾e;;bus
48.9703360419704;14.4746803367606;4871;CB;Èeské Budìjovice,,U soudu;;bus
48.9673474002073;14.4747293112695;4847;CB;Èeské Budìjovice,,Geodezie;;bus
48.9624210791499;14.4734133239341;56565;CB;Èeské Budìjovice,,Samson;;bus
48.9241324994272;14.453770295409;38362;CB;Vèelná;;bus
48.9242899272146;14.4539518916581;38362;CB;Vèelná;;bus
48.9088549991475;14.4511516235892;13902;CB;Kamenný Újezd,,Dùl;;bus
48.9084219418204;14.4511452379044;13902;CB;Kamenný Újezd,,Dùl;;bus
48.8981976298696;14.4469500418899;13901;CB;Kamenný Újezd;;bus
48.8980072389556;14.4465373042923;13901;CB;Kamenný Újezd;;bus
48.8852543990126;14.432130351646;13903;CB;Kamenný Újezd,,©tilec;;bus
48.8854729346172;14.4326791577853;13903;CB;Kamenný Újezd,,©tilec;;bus
48.8770861673727;14.4197112370503;13906;CB;Kamenný Újezd,Kosov;;bus
48.8770284961531;14.4200645110674;13906;CB;Kamenný Újezd,Kosov;;bus
48.8657055183886;14.4082078693133;6761;CK;Dolní Tøebonín,,rozc.1.0;;bus
48.8552022024219;14.4103269927835;6760;CK;Dolní Tøebonín;;bus
48.8550949794487;14.4106470694887;6760;CK;Dolní Tøebonín;;bus
48.8503961120812;14.4115904331358;9988;CK;Dolní Tøebonín,Horní Tøebonín;;bus
48.8477695854994;14.3807490830615;41894;CK;Zlatá Koruna,Harazim;;bus
48.847643649995;14.3803816903169;41894;CK;Zlatá Koruna,Harazim;;bus
48.8442756552939;14.3655523956062;41899;CK;Zlatá Koruna,Rájov;;bus
48.8444046047637;14.3660828487916;41899;CK;Zlatá Koruna,Rájov;;bus
48.8324372456928;14.3453029782708;28924;CK;Pøíseèná;;bus
48.8323577070696;14.3454040701364;28924;CK;Pøíseèná;;bus
48.8260679485735;14.3363574451257;4970;CK;Èeský Krumlov,Domoradice;;bus
48.8256389052893;14.3357858269345;4970;CK;Èeský Krumlov,Domoradice;;bus
48.8265934022513;14.3344175936953;4971;CK;Èeský Krumlov,,Tovární;;bus
48.8349111013327;14.3302958233137;4972;CK;Èeský Krumlov,,Tovární toèna;;bus
48.834363929313;14.3305221197426;4972;CK;Èeský Krumlov,,Tovární toèna;;bus
48.8260828163051;14.3336311535344;4976;CK;Èeský Krumlov,,U Supermarketu;;bus
48.8225280810846;14.3293176094556;4978;CK;Èeský Krumlov,,Plevno;;bus
48.8226350099007;14.3298466308969;4978;CK;Èeský Krumlov,,Plevno;;bus
48.8200975971373;14.3252460720727;4984;CK;Èeský Krumlov,,Sv.Trojice;;bus
48.8200609571823;14.3254485460569;4984;CK;Èeský Krumlov,,Sv.Trojice;;bus
48.8154346049271;14.3157717611064;4985;CK;Èeský Krumlov,©pièák;;bus
48.8565197575649;14.3975598316711;39116;CK;Dolní Tøebonín,,rozc. Vìncova Hora;;bus
48.8568018059731;14.3976093818313;39116;CK;Dolní Tøebonín,,rozc. Vìncova Hora;;bus
49.0685608892569;14.522096099209;11888;CB;Chotýèany;;bus
49.2129626680772;14.7762714314113;6963;JH;Doòov;;bus
49.2103306581022;14.7859563805545;37633;JH;Újezdec,,rozc.0.3;;bus
49.2081155405495;14.7850853748567;50511;JH;Újezdec;;bus
49.2082515787833;14.7938552831114;41254;JH;Záhoøí,,rozc.1.0;;bus
49.213060565216;14.7980472914358;47714;JH;Záhoøí,,obec;;bus
49.1983771251036;14.8205775979605;26859;JH;Ple¹e,,host.;;bus
49.1961167226793;14.8217025100012;26860;JH;Ple¹e,,obec;;bus
49.2189967546147;14.8411305384768;39624;JH;Vi¹òová;;bus
49.2015884701429;14.8384393812401;13979;JH;Ple¹e,,Dvùr Lhota;;bus
49.1844432731865;14.8511295652713;13981;JH;Karda¹ova Øeèice,,nám.;;bus
49.1799664624255;14.8498358440188;47320;JH;Karda¹ova Øeèice,,Palackého;;bus
49.1624325188807;14.8307976694841;13984;JH;Karda¹ova Øeèice,Øehoøinky;;bus
49.169195750058;14.8345501807466;13985;JH;Karda¹ova Øeèice,Øehoøinky,samoty;;bus
49.1871678657821;14.8591349694653;13982;JH;Karda¹ova Øeèice,,¾el.st.;;bus
49.1832394454474;14.8901013806145;26918;JH;Pluhùv ®ïár,Plasná;;bus
49.1983638921393;14.8873207430912;26916;JH;Pluhùv ®ïár,Klenov;;bus
49.2074826549124;14.8785406722083;26920;JH;Pluhùv ®ïár,Pohoøí;;bus
49.2236881836777;14.8920381981459;26910;JH;Pluhùv ®ïár;;bus
49.2372645727941;14.9231076771795;26917;JH;Pluhùv ®ïár,Mosteèný;;bus
49.2323458559011;14.870519131074;26922;JH;Pluhùv ®ïár,Samosoly;;bus
49.2416967374446;14.8845821459039;26913;JH;Pluhùv ®ïár,Èervená Lhota,rozc.1.0;;bus
49.2456799664566;14.8974920779566;26914;JH;Pluhùv ®ïár,Ji¾ná;;bus
49.2545560042766;14.895206406602;39351;JH;Vícemil,,rozc.1.0;;bus
49.2656449447997;14.9247259413433;5603;JH;De¹tná,,nám.;1;bus
49.2656764177749;14.9247969004546;5603;JH;De¹tná,,nám.;2;bus
49.2657074822457;14.9248584446509;5603;JH;De¹tná,,nám.;3;bus
49.180488159444;14.9754640847505;13404;JH;Jindøichùv Hradec,,ba¾antnice samoty;;bus
49.1920233640851;14.9600590377956;19119;JH;Lodhéøov,Studnice;;bus
49.2095390612673;14.9632477735136;19117;JH;Lodhéøov,,¹kola;;bus
49.2247399793168;14.9593082127043;53457;JH;Lodhéøov,,toèna;;bus
49.2275202248423;14.9585515584415;19118;JH;Lodhéøov,Najdek,rozc.1.0;;bus
49.2587041051995;14.9387831239989;5604;JH;De¹tná,,samoty;;bus
49.2452606113829;14.9502791987259;5600;JH;De¹tná,,Brèík rozc.2.0;;bus
49.2671636251243;14.9225133592274;48995;JH;De¹tná,,Táborská;;bus
49.2671438770475;14.9224644736677;48995;JH;De¹tná,,Táborská;;bus
49.2901674232825;14.913704453981;3150;JH;Bøezina,,ÈSAD;;bus
49.2918125820417;14.9103123616574;3149;JH;Bøezina;;bus
49.2937460503742;14.9285667685608;7187;JH;Drunèe,,samoty;;bus
49.2962922014269;14.9361868713421;7186;JH;Drunèe;;bus
49.2865817260858;14.951966542017;30040;JH;Rosièka,,cihelna;;bus
49.2793252238997;14.9462034866691;30041;JH;Svìtce,,rozc.Rosièka 1.2;;bus
49.2748078929772;14.9422840851007;34244;JH;Svìtce,,ObÚ;;bus
49.2747830379184;14.9421419677838;34244;JH;Svìtce,,ObÚ;;bus
49.2700918658865;14.9315148773748;5602;JH;De¹tná,,láznì;;bus
49.2700620653935;14.9316013998642;5602;JH;De¹tná,,láznì;;bus
49.2705995251422;14.9150269158751;5599;JH;De¹tná,,areál ZD;;bus
49.2774895207252;14.8993630274074;5606;JH;De¹tná,Nový Dvùr;;bus
49.2862752774734;14.8858057595929;5605;JH;De¹tná,Lipovka;;bus
49.2931471392761;14.8750539283124;53456;JH;De¹tná,,rozc.Budislav;;bus
49.2781616308158;14.8828435865389;11794;TA;Chotìmice,,U Brusù;;bus
49.2755529286472;14.8759885573192;11793;TA;Chotìmice;;bus
49.243176504546;14.8450640719288;5748;TA;Dírná;;bus
49.239222620421;14.8194233957437;5755;TA;Dírná,Závsí;;bus
49.2277795917872;14.7954128696323;5750;TA;Dírná,L¾ín;;bus
49.2142078958482;14.7357346661617;30891;TA;Øípec;;bus
49.2101361677171;14.7213979439374;39224;TA;Øípec,,rozvodna;;bus
49.2072575674857;14.7175012693478;39222;TA;Veselí n.Lu¾.,,Madeta;;bus
49.1939648914938;14.7159660504508;39215;TA;Veselí n.Lu¾.,,aut.st.;1;bus
49.1935228169189;14.7159283993397;39215;TA;Veselí n.Lu¾.,,aut.st.;3;bus
49.187235625021;14.7081278630833;39227;TA;Veselí n.Lu¾.,,U kina;;bus
49.1866735150243;14.7013549836652;39220;TA;Veselí n.Lu¾.,,kult.dùm;;bus
49.1469288956171;14.6281837539311;7645;CB;Dynín,,¾el.st.rozc.1.0;;bus
49.1268234692471;14.6043124599661;22950;CB;Neplachov;;bus
49.0686095639159;14.5224440282259;11888;CB;Chotýèany;;bus
49.0156585137078;14.6019115126432;18894;CB;Li¹ov,,Pøívorka;;bus
49.0151607317709;14.612432854972;18893;CB;Li¹ov,,nám.;;bus
48.9960147869788;14.6840036000132;18283;CB;©tìpánovice,,rozc.Slavo¹ovice 4.0;;bus
48.9961604324618;14.6844318571656;18283;CB;©tìpánovice,,rozc.Slavo¹ovice 4.0;;bus
49.0106903210481;14.7567662888254;36746;JH;Tøeboò,,Táboritská;;bus
49.0080732593944;14.7649818549898;36731;JH;Tøeboò,,aut.nádr.;4;bus
49.007953050467;14.7651497129385;36731;JH;Tøeboò,,aut.nádr.;5;bus
49.0078343028277;14.7653252600656;36731;JH;Tøeboò,,aut.nádr.;6;bus
49.0291041173157;14.801216892348;36762;JH;Tøeboò,Nová Hlína;;bus
49.0387002675537;14.8165192877522;36765;JH;Tøeboò,Stará Hlína;;bus
48.8274049300803;14.6379376746489;36265;CB;Trhové Sviny,,Svatá Trojice;;bus
48.8172366670035;14.634493036029;5287;CB;Èí¾krajice,Bor¹íkov;;bus
48.8123481226114;14.6358072305711;5290;CB;Èí¾krajice,Mezilesí,rozc.0.5;;bus
48.8121342068182;14.6438068175624;5291;CB;Èí¾krajice,Mezilesí,u transformátoru;;bus
49.076064932325;14.5313319295117;11889;CB;Chotýèany,,k ¾el.st.rozc.1.0;;bus
48.9861191008353;14.4717517817254;4875;CB;Èeské Budìjovice,,U Trojice;;bus
48.9901629710078;14.4749670099751;58130;CB;Èeské Budìjovice,,Pra¾ská-obchodní zóna;;bus
49.0157366293005;14.4946957354713;37779;CB;Borek,,rozc.Úsilné;;bus
49.0206891300283;14.4985353720551;2054;CB;Borek;;bus
49.0384458093136;14.4761478809026;10207;CB;Hosín;;bus
49.0439968569955;14.4927712768061;10208;CB;Hosín,,leti¹tì;;bus
49.0444640695974;14.5066800007997;10212;CB;Hosín,,rozc.Chýòava;;bus
49.0427598327621;14.5066152975293;54895;CB;Hosín,,Chýòava;;bus
49.0380950707616;14.5055174444799;10213;CB;Hosín,,Chýòava u Nedvìdù;;bus
49.051965518273;14.5120070988009;11890;CB;Chotýèany,,VETAS;;bus
49.0546771326277;14.5330188647577;18905;CB;Li¹ov,Lhotice;;bus
49.0428122112213;14.5548714262077;18896;CB;Li¹ov,Èervený Újezdec;;bus
49.0598253475253;14.5664770425706;18903;CB;Li¹ov,Kolný;;bus
49.0533583078231;14.5839177885738;18910;CB;Li¹ov,Velechvín,U køí¾ku;;bus
49.0505459086203;14.586373298705;18909;CB;Li¹ov,Velechvín;;bus
49.0320209857663;14.6039054084397;18904;CB;Li¹ov,Levín;;bus
49.0160902216071;14.6263331248801;18891;CB;Li¹ov,,Jitona;;bus
49.0137019857952;14.6523481176184;18908;CB;Li¹ov,Sosní;;bus
49.0163313584122;14.6731014800827;18899;CB;Li¹ov,Horní Miletín;;bus
49.0404401145915;14.729676835134;36764;JH;Tøeboò,,Pøeseka;;bus
49.0176282106819;14.7436447479908;36757;JH;Tøeboò,Bøilice;;bus
49.0147115974946;14.7556627848308;36740;JH;Tøeboò,,rozc.¾el.st.;;bus
49.0323438545166;14.7503813077088;36736;JH;Tøeboò,,Gigant Ro¾mberk;;bus
49.0460870644046;14.7510000657961;36741;JH;Tøeboò,,Ro¾mberk rybník rozc.1.0;;bus
49.0378217223183;14.8164096953856;36765;JH;Tøeboò,Stará Hlína;;bus
49.0318725698316;14.8337409106487;33702;JH;Tøeboò,Vitmanov;;bus
49.034319860867;14.857712620476;33697;JH;Tøeboò,Le¹tina;;bus
49.0305241750615;14.8789000755112;33696;JH;Støíbøec;;bus
49.2559834973241;13.8492388091706;53711;ST;Pracejovice,,U Køí¾ku;;bus
49.0402302886908;14.8898156106774;26689;JH;Pístina,,Ba¹ta;;bus
49.0486966560756;14.9010664721081;26688;JH;Pístina;;bus
49.0296233324542;14.913477845411;33700;JH;Støíbøec,Mní¹ek;;bus
49.0240300518891;14.9299323155757;33699;JH;Støíbøec,Liboøezy,rozc.0.1;;bus
49.0283572473471;14.9331280999128;33698;JH;Støíbøec,Liboøezy;;bus
49.009124618456;14.9409599552997;11533;JH;Chlum u Tøebonì,Mirochov;;bus
49.0050362402036;14.9363638007733;11536;JH;Chlum u Tøebonì,Mirochov,rozc.0.1;;bus
48.9938874261795;14.9380744893077;11534;JH;Chlum u Tøebonì,Mirochov,háj.;;bus
48.9895785807782;14.9367834420973;32703;JH;Chlum u Tøebonì,,Kouty;;bus
48.9807372520351;14.9424783462465;32702;JH;Chlum u Tøebonì,,Kopaniny;;bus
48.9777431447961;14.9534051746907;32700;JH;Staòkov;;bus
48.9706743526786;14.9537664668213;32704;JH;Staòkov,,Peè;;bus
48.9590464747748;14.9348460169772;11526;JH;Chlum u Tøebonì,,gará¾e ÈSAD;;bus
48.9590201417643;14.9345347437846;11526;JH;Chlum u Tøebonì,,gará¾e ÈSAD;;bus
48.9633345012792;14.9522811054726;32701;JH;Staòkov,,Jednoty;;bus
48.9639801481819;14.9273512395766;11529;JH;Chlum u Tøebonì,,U Maxù;;bus
48.9908244645023;14.9108157457077;11531;JH;Chlum u Tøebonì,Lutová;;bus
48.9866125400224;14.9132006623372;11532;JH;Chlum u Tøebonì,Lutová,Jednoty;;bus
49.0048228978541;14.9180677845977;11538;JH;Chlum u Tøebonì,®íteè,Jednoty;;bus
49.0505282847933;14.9399782920454;28852;JH;Pøíbraz;;bus
49.0584305433768;14.9533927442602;33395;JH;Strá¾ n.Ne¾.,Dolní Lhota,rozc.1.0;;bus
49.0616114632726;14.945066925441;33394;JH;Strá¾ n.Ne¾.,Dolní Lhota;;bus
49.0670731375369;14.9159091550687;33391;JH;Strá¾ n.Ne¾.,,M©;;bus
49.0697135818608;14.9059559432105;33392;JH;Strá¾ n.Ne¾.,,nám.;;bus
49.0844590766704;14.9089855446974;26839;JH;Plavsko;;bus
49.0922246601796;14.9458243605945;40704;JH;Vydøí;;bus
49.1155650507494;14.9646916139016;13454;JH;Jindøichùv Hradec,Políkno;;bus
49.1166982745737;14.9123159969482;8483;JH;Hatín,Stajka;;bus
49.1084556830818;14.9103541818853;8479;JH;Hatín;;bus
49.111490466295;14.8993368913574;8481;JH;Hatín,,Sýkora rozc.1.5;;bus
49.108745522412;14.8913769298;8480;JH;Hatín,,háj.;;bus
49.0980104978087;14.8564182309157;8482;JH;Hatín,Jemèina;;bus
49.090362730282;14.8357607624177;24021;JH;Novosedly n.Ne¾.,Stradinky,Jednoty;;bus
48.9805717469826;14.5078931621789;4867;CB;Èeské Budìjovice,,Nové Vráto ÈSAO;;bus
48.9805934921567;14.5189623232261;30514;CB;Rudolfov,Hlinsko;;bus
48.981416966759;14.5375374674637;7309;CB;Dubièné;;bus
49.0549978123624;14.7505546102698;19870;JH;Lu¾nice,,¾el.st.;;bus
49.0611338678029;14.7548678503369;19868;JH;Lu¾nice;;bus
49.118270087891;14.5900660524382;34735;CB;©evìtín,©vamberk;;bus
49.0992767456046;14.5722111138598;34733;CB;©evìtín,,nám.;;bus
49.0994325963878;14.5778497471445;34734;CB;©evìtín,,Zdrav.zásobování;;bus
49.0974244419966;14.5671409760403;34732;CB;©evìtín,,Na brankách;;bus
49.0896641866693;14.5471619222714;39694;CB;Vitín;;bus
49.0858316985551;14.5421892889809;39696;CB;Vitín,,Zadní díly;;bus
49.0761772156465;14.5312989564635;11889;CB;Chotýèany,,k ¾el.st.rozc.1.0;;bus
49.031844866835;14.833693617294;33702;JH;Tøeboò,Vitmanov;;bus
49.0342681235302;14.8577265002101;33697;JH;Tøeboò,Le¹tina;;bus
49.0304640432675;14.8788761047675;33696;JH;Støíbøec;;bus
49.0302411843003;14.8985892788417;33701;JH;Støíbøec,Mní¹ek,U Kroèákù;;bus
49.04867825669;14.9011816271981;26688;JH;Pístina;;bus
49.0242579262809;14.9302792303746;33699;JH;Støíbøec,Liboøezy,rozc.0.1;;bus
49.0283840622302;14.9332244821242;33698;JH;Støíbøec,Liboøezy;;bus
49.0090770969949;14.9408673908161;11533;JH;Chlum u Tøebonì,Mirochov;;bus
49.0050074458352;14.9362408536452;11536;JH;Chlum u Tøebonì,Mirochov,rozc.0.1;;bus
48.9938079997228;14.9380626985383;11534;JH;Chlum u Tøebonì,Mirochov,háj.;;bus
48.989705095745;14.9368377008008;32703;JH;Chlum u Tøebonì,,Kouty;;bus
48.9779636066249;14.9535796390227;32700;JH;Staòkov;;bus
48.9706845997387;14.953678165183;32704;JH;Staòkov,,Peè;;bus
48.9632931976434;14.9523934777324;32701;JH;Staòkov,,Jednoty;;bus
48.9636664439929;14.9275574204131;11529;JH;Chlum u Tøebonì,,U Maxù;;bus
48.9908647765013;14.9109571148395;11531;JH;Chlum u Tøebonì,Lutová;;bus
48.986676904548;14.9130940373185;11532;JH;Chlum u Tøebonì,Lutová,Jednoty;;bus
49.0007850475374;14.9151070554376;11537;JH;Chlum u Tøebonì,®íteè;;bus
49.0062798315116;14.917347265873;11538;JH;Chlum u Tøebonì,®íteè,Jednoty;;bus
49.050261764781;14.9387845995551;28852;JH;Pøíbraz;;bus
49.0584343044296;14.9534665586378;33395;JH;Strá¾ n.Ne¾.,Dolní Lhota,rozc.1.0;;bus
49.0410651991831;14.9430067968153;28853;JH;Pøíbraz,,hráz;;bus
49.0672159256542;14.9157769169331;33391;JH;Strá¾ n.Ne¾.,,M©;;bus
49.09222463426;14.9459545266503;40704;JH;Vydøí;;bus
49.1157589688736;14.9652871618522;13454;JH;Jindøichùv Hradec,Políkno;;bus
49.1079952718527;14.9237587782376;52056;JH;Pol¹tì;;bus
49.1167017352261;14.9122088208767;8483;JH;Hatín,Stajka;;bus
49.1085416320704;14.910300940514;8479;JH;Hatín;;bus
49.1114389288659;14.8991846938926;8481;JH;Hatín,,Sýkora rozc.1.5;;bus
49.1087774696985;14.8913341264713;8480;JH;Hatín,,háj.;;bus
49.0980561107721;14.8563309242446;8482;JH;Hatín,Jemèina;;bus
49.0902863040489;14.8358234959253;24021;JH;Novosedly n.Ne¾.,Stradinky,Jednoty;;bus
49.4204958000351;13.8772259913066;1509;ST;Blatná,,SOU;;bus
49.3665536404402;13.9515020971416;31196;ST;Sedlice,,Na ovèínì;;bus
49.3665472053418;13.951426736605;31196;ST;Sedlice,,Na ovèínì;;bus
49.3484079204523;13.9451176258237;29278;ST;Radomy¹l,Rojice;;bus
48.8550460966575;14.369628506367;41892;CK;Zlatá Koruna;;bus
48.8549484469057;14.3694791972701;41892;CK;Zlatá Koruna;;bus
48.8528484976324;14.3569629303238;41893;CK;Zlatá Koruna,,u nádra¾í;;bus
48.8529196113005;14.3569505946628;41893;CK;Zlatá Koruna,,u nádra¾í;;bus
48.8510338244941;14.3502184377566;41895;CK;Zlatá Koruna,Letná;;bus
48.8503302256782;14.3496829576091;41895;CK;Zlatá Koruna,Letná;;bus
48.8482763998103;14.3473891530003;32650;CK;Srnín,,pekárna;;bus
48.8482571088536;14.3475777243059;32650;CK;Srnín,,pekárna;;bus
48.8436016261779;14.3443946793963;32649;CK;Srnín;;bus
48.8434707365426;14.3443580341039;32649;CK;Srnín;;bus
48.8971960203411;14.6680642527965;2133;CB;Borovany,Hluboká u Bor.,samoty;;bus
48.8962254273261;14.6755267492982;2134;CB;Borovany,Hluboká u Bor.,u ¾el.pøejezdu;;bus
48.8976870500967;14.6797715648953;2132;CB;Borovany,Hluboká u Bor.;;bus
48.8902793006848;14.726216953454;13331;CB;Jílovice,,U Tomá¹kù;;bus
48.8841632785133;14.7260389661949;13333;CB;Jílovice,,západní okraj;;bus
48.87996100195;14.7019166970745;50820;CB;Jílovice,,u ¾el.pøejezdu;;bus
48.8774573204444;14.7050329371443;13334;CB;Jílovice,,¾el.st.;;bus
48.8745737880795;14.6774921239268;2138;CB;Borovany,Tøebeè;;bus
48.8718401252249;14.6937491698337;2140;CB;Borovany,Tøebeè,rozc.1.0;;bus
48.8746672386469;14.6957717900073;2139;CB;Borovany,Tøebeè,Brouskùv mlýn;;bus
48.8596887397359;14.694747690022;24725;CB;Ole¹nice,Lhotka;;bus
48.8596722518842;14.6946450956791;24725;CB;Ole¹nice,Lhotka;;bus
48.8480052415408;14.7023830406813;24723;CB;Ole¹nice,,Hvízdalka;;bus
48.8480377864896;14.7024468232602;24723;CB;Ole¹nice,,Hvízdalka;;bus
48.8404591944053;14.7050142304964;24722;CB;Ole¹nice;;bus
48.8403247538043;14.7046885971371;24722;CB;Ole¹nice;;bus
48.8235479698434;14.7206726112643;24724;CB;Ole¹nice,Buková;;bus
48.8467462133626;14.6701690287733;36270;CB;Trhové Sviny,Bukvice;;bus
48.8466818809206;14.6701966702025;36270;CB;Trhové Sviny,Bukvice;;bus
48.8421090725838;14.6433084784446;36264;CB;Trhové Sviny,,Tøebízského;;bus
48.8391955660887;14.6368635127797;36260;CB;Trhové Sviny,,aut.nádr.;6;bus
48.8391506749589;14.6371129618266;36260;CB;Trhové Sviny,,aut.nádr.;5;bus
48.8391084181939;14.6373477691395;36260;CB;Trhové Sviny,,aut.nádr.;4;bus
48.8392340075338;14.637039397121;36260;CB;Trhové Sviny,,aut.nádr.;1;bus
48.8391966981914;14.63724671443;36260;CB;Trhové Sviny,,aut.nádr.;2;bus
48.8391518036163;14.6374961746703;36260;CB;Trhové Sviny,,aut.nádr.;3;bus
48.8266853014649;14.6225436487452;31962;CB;Trhové Sviny,,rozc.Lni¹tì 0.6;;bus
48.8374337434398;14.6078352643397;36269;CB;Trhové Sviny,Bøezí,rozc.1.0;;bus
48.8377208468031;14.5981966044801;36266;CB;Trhové Sviny,,Trajer mlýn;;bus
48.834824949797;14.5823762181908;36262;CB;Trhové Sviny,,Hájek Jednota;;bus
48.8318306184453;14.5697103505607;36272;CB;Trhové Sviny,Nìchov;;bus
48.8309587371283;14.5647317539434;36280;CB;Trhové Sviny,Todnì,rozc.1.0;;bus
48.8288705015237;14.5545580587822;52093;CB;Loèenice,,Parný;;bus
48.8275856315947;14.533000397719;19101;CB;Loèenice,,ZD;;bus
48.8242546975639;14.5273737613646;19098;CB;Loèenice;;bus
48.8140388767551;14.5316617352441;19100;CB;Loèenice,,U cihelny;;bus
48.8047238410182;14.5485132870946;19102;CB;Loèenice,Nesmìò;;bus
48.8034180810655;14.5405371962785;19103;CB;Loèenice,Nesmìò,rozc.0.5;;bus
48.8253779380666;14.525746408371;19099;CB;Loèenice,,rozc.Svatý Jan;;bus
48.8246927536279;14.5118788307515;34184;CB;Svatý Jan n.Mal¹í;;bus
48.822877882098;14.4970722364258;34185;CB;Svatý Jan n.Mal¹í,Svachov;;bus
48.8295396230304;14.6635217412909;36277;CB;Trhové Sviny,Rejta;;bus
48.8236254384645;14.6765576847494;36275;CB;Trhové Sviny,Pìèín,rozc.1.0;;bus
48.8237232112732;14.6766135310539;36275;CB;Trhové Sviny,Pìèín,rozc.1.0;;bus
48.8067623914586;14.7082594033336;42359;CB;®ár;;bus
48.8069028865682;14.7085159762061;42359;CB;®ár;;bus
48.7958704113787;14.6826111964984;42361;CB;®ár,®umberk;;bus
48.8068055240894;14.7151066102189;42360;CB;®ár,,rozc.na hrázi;;bus
48.8072820381088;14.7154813431739;42360;CB;®ár,,rozc.na hrázi;;bus
48.7978394483437;14.7329605668808;9962;CB;®ár,,rozc.Svary¹ov 0.2;;bus
48.7978696584811;14.7325262086272;9962;CB;®ár,,rozc.Svary¹ov 0.2;;bus
48.7965776942878;14.7485589508335;23782;CB;Nové Hrady,Hlinov,rozc.0.7;;bus
48.7966672184871;14.7484937594608;23782;CB;Nové Hrady,Hlinov,rozc.0.7;;bus
48.7888955614053;14.7726458631167;23789;CB;Nové Hrady,Údolí;;bus
48.7890062760716;14.7725322897809;23789;CB;Nové Hrady,Údolí;;bus
48.7943297753535;14.7850276116749;23787;CB;Nové Hrady,©tiptoò,rozc.0.2;;bus
48.7945645816075;14.7854089100031;23787;CB;Nové Hrady,©tiptoò,rozc.0.2;;bus
48.7889811210421;14.7825258671296;23778;CB;Nové Hrady,,aut.nádr.;3;bus
48.7889735572281;14.7827421628891;23778;CB;Nové Hrady,,aut.nádr.;2;bus
48.7889659622876;14.7829593707936;23778;CB;Nové Hrady,,aut.nádr.;1;bus
48.7965569754919;14.8359155521111;23784;CB;Nové Hrady,Nakolice;;bus
48.7964949566408;14.8358600079237;23784;CB;Nové Hrady,Nakolice;;bus
48.7887565327636;14.8673584567277;23790;CB;Nové Hrady,Vy¹né;;bus
48.7887159788575;14.8672955975182;23790;CB;Nové Hrady,Vy¹né;;bus
48.7879880122148;14.8907373681434;23781;CB;Nové Hrady,Fischerovy chalupy;;bus
48.787945548527;14.8907019658555;23781;CB;Nové Hrady,Fischerovy chalupy;;bus
48.7696526743005;14.9583982726527;4921;JH;Èeské Velenice,,¾el.st.;;bus
48.7680702683817;14.9642934885407;4920;JH;Èeské Velenice,,hotel Konzul;;bus
48.7675241601693;14.9656092449504;4920;JH;Èeské Velenice,,hotel Konzul;;bus
48.7649630072344;14.9622307652366;4918;JH;Èeské Velenice,,dílny ÈD;;bus
48.8101563444461;14.9223631250625;49126;JH;Nová Ves n.Lu¾.,,rozc.;;bus
48.8116229633551;14.9090416455703;50856;JH;Nová Ves n.Lu¾.,,Písková;;bus
48.8115826865496;14.9090625805056;50856;JH;Nová Ves n.Lu¾.,,Písková;;bus
48.8053056516801;14.9024441165257;23682;JH;Nová Ves n.Lu¾.,®ofina Hu»;;bus
48.8053425824206;14.9023838410092;23682;JH;Nová Ves n.Lu¾.,®ofina Hu»;;bus
48.8102638369776;14.9316973507781;23681;JH;Nová Ves n.Lu¾.,,Sklostroj;;bus
48.81213471417;14.9232520608018;23679;JH;Nová Ves n.Lu¾.;;bus
48.8120801830379;14.9233402277684;23679;JH;Nová Ves n.Lu¾.;;bus
48.8198233307859;14.9232999459477;23680;JH;Nová Ves n.Lu¾.,,Calofrig;;bus
48.819749252579;14.923178481587;23680;JH;Nová Ves n.Lu¾.,,Calofrig;;bus
48.836365329269;14.9180315091513;7567;JH;Nová Ves n.Lu¾.,,samoty;;bus
48.8363116685421;14.9179684861651;7567;JH;Nová Ves n.Lu¾.,,samoty;;bus
48.8526533684082;14.9011478569029;7565;JH;Dvory n.Lu¾.;;bus
48.8525341993366;14.9009669308171;7565;JH;Dvory n.Lu¾.;;bus
48.8523286260269;14.9167819767393;8331;JH;Halámky,,jednota;;bus
48.8521977108528;14.9167851420763;8331;JH;Halámky,,jednota;;bus
48.8249287984218;14.9634438415299;8329;JH;Halámky,,st.hr.;;bus
48.8536272541282;14.9150138285537;8330;JH;Halámky,,host.;;bus
48.8536483017363;14.9150783780504;8330;JH;Halámky,,host.;;bus
48.8791370959824;14.93325859326;29562;JH;Rap¹ach;;bus
48.8628090522926;14.9255045869614;29564;JH;Rap¹ach,,Vochùzky;;bus
48.8629289651849;14.9257056693289;29564;JH;Rap¹ach,,Vochùzky;;bus
48.8950884361291;14.9372260887233;33958;JH;Suchdol n.Lu¾.,Franti¹kov;;bus
48.8950560920457;14.9371844999576;33958;JH;Suchdol n.Lu¾.,Franti¹kov;;bus
48.8777832881349;14.9366569245272;29563;JH;Rap¹ach,,¹kola;;bus
48.8778188522123;14.9368017921325;29563;JH;Rap¹ach,,¹kola;;bus
48.8710309639998;14.9490868377157;29565;JH;Rap¹ach,Spáleni¹tì;;bus
48.8995832452437;14.9288681027166;33964;JH;Suchdol n.Lu¾.,Klikov,Strouhy;;bus
48.89955065389;14.9288231968217;33964;JH;Suchdol n.Lu¾.,Klikov,Strouhy;;bus
48.9016885566188;14.9195982292395;33965;JH;Suchdol n.Lu¾.,Klikov,U Kojanù;;bus
48.9016600114054;14.9195570249925;33965;JH;Suchdol n.Lu¾.,Klikov,U Kojanù;;bus
48.9047903207757;14.9131189928075;33962;JH;Suchdol n.Lu¾.,Klikov,kult.dùm;;bus
48.8911516604073;14.8897895244239;33969;JH;Suchdol n.Lu¾.,Tu¹»,u váhy;;bus
48.9028483361804;14.8822846826585;33956;JH;Suchdol n.Lu¾.,,¾el.st.;;bus
48.8924145888328;14.8778661225845;33953;JH;Suchdol n.Lu¾.,,mìsto;1;bus
48.892499574054;14.8776664974316;33953;JH;Suchdol n.Lu¾.,,mìsto;2;bus
48.892561046668;14.8775349817061;33953;JH;Suchdol n.Lu¾.,,mìsto;3;bus
48.8896968742852;14.8591706578455;33955;JH;Suchdol n.Lu¾.,,U transformátoru;;bus
48.8897984116295;14.8494437271758;33959;JH;Suchdol n.Lu¾.,Horní;;bus
48.8898553833836;14.8494356989652;33959;JH;Suchdol n.Lu¾.,Horní;;bus
48.8854994545715;14.8180412697531;33957;JH;Suchdol n.Lu¾.,Bor;;bus
48.8854182711496;14.8180777548204;33957;JH;Suchdol n.Lu¾.,Bor;;bus
48.8867828424881;14.8272984712093;33967;JH;Suchdol n.Lu¾.,Synochov;;bus
48.8867476821208;14.8273830413303;33967;JH;Suchdol n.Lu¾.,Synochov;;bus
48.8841569922295;14.7734611471684;13339;CB;Jílovice,©almanovice;;bus
48.8881504731472;14.780873452717;13340;CB;Jílovice,©almanovice,rozc.0.3;;bus
48.9635304385301;14.4881167318102;4860;CB;Èeské Budìjovice,,Dopravní podnik;;bus
48.9509653076668;14.5014464365165;4865;CB;Èeské Budìjovice,,Nové Hodìjovice;;bus
48.9787249387264;14.4949682358533;63444;CB;Èeské Budìjovice,,Madeta;;bus
48.9878794342491;14.5272107401351;49681;CB;Vráto;;bus
49.0052671444952;14.5625704344789;13583;CB;Jivno,,cihelna;;bus
49.0154187828239;14.6002297485395;18894;CB;Li¹ov,,Pøívorka;;bus
49.0011932355652;14.6548082680636;34962;CB;©tìpánovice;;bus
48.9973359584221;14.6943654817178;34963;CB;©tìpánovice,Vranín;;bus
48.9991321377301;14.7297321701988;36760;JH;Tøeboò,Dvorce,lihovar;;bus
49.010045737635;14.7567852454354;36746;JH;Tøeboò,,Táboritská;;bus
49.0084352932418;14.7644360074774;36731;JH;Tøeboò,,aut.nádr.;7;bus
49.0080895773257;14.7648135365099;36731;JH;Tøeboò,,aut.nádr.;3;bus
49.0079837396916;14.7650016200629;36731;JH;Tøeboò,,aut.nádr.;2;bus
49.0078633991252;14.7651728591327;36731;JH;Tøeboò,,aut.nádr.;1;bus
49.0283846843671;14.8001543272724;36762;JH;Tøeboò,Nová Hlína;;bus
49.0381040290191;14.8153263139792;36765;JH;Tøeboò,Stará Hlína;;bus
49.0606632544388;14.8440464755845;24020;JH;Novosedly n.Ne¾.,Mláka,Velká;;bus
49.0821943433607;14.8199553598331;24015;JH;Novosedly n.Ne¾.;;bus
49.0852742008342;14.8124286701001;24016;JH;Novosedly n.Ne¾.,,ObÚ;;bus
49.0962538909349;14.767861415051;24022;JH;Novosedly n.Ne¾.,®abice;;bus
49.0946772799009;14.7496948922382;14540;JH;Klec;;bus
49.0815293619471;14.719392367637;19212;JH;Lomnice n.Lu¾.,,Václavské nám.;;bus
49.0780122540519;14.7035164210899;32288;JH;Lomnice n.Lu¾.,,rozc.Smr¾ov 1.2;;bus
49.0684185821822;14.7023526482297;19214;JH;Smr¾ov,,©aloun.sádky;;bus
49.0484555425167;14.6714851079545;18900;CB;Li¹ov,Horní Slovìnice;;bus
49.0483226247043;14.6646762512158;18898;CB;Li¹ov,Dolní Slovìnice;;bus
49.032014351907;14.6411273394966;18902;CB;Li¹ov,Hùrky;;bus
49.017324043585;14.6107017924026;18889;CB;Li¹ov,,Èechova ul.;;bus
48.9836564803029;14.5089967678884;4866;CB;Èeské Budìjovice,,Nové Vráto;;bus
48.9875016311826;14.5252681731349;49681;CB;Vráto;;bus
48.9938945740144;14.5420859399655;30512;CB;Rudolfov,,kostel;;bus
49.0051488420656;14.5631396172806;13583;CB;Jivno,,cihelna;;bus
49.0060074680735;14.5776017330495;13584;CB;Jivno,,Na Klaudì;;bus
49.0047218613759;14.77035645914;36737;JH;Tøeboò,,Husova;;bus
49.0048263325998;14.7703141845737;36737;JH;Tøeboò,,Husova;;bus
49.0050887576262;14.774296039211;36734;JH;Tøeboò,,Dukelská;;bus
49.0068817941616;14.7778139106348;36754;JH;Tøeboò,,¾el.zast.;;bus
49.0068160864965;14.7773503722832;36754;JH;Tøeboò,,¾el.zast.;;bus
49.0103289722585;14.7845589536553;36738;JH;Tøeboò,,Na Kopeèku;;bus
49.0107574030552;14.7851605952616;36738;JH;Tøeboò,,Na Kopeèku;;bus
49.0080798199048;14.8002542309065;36749;JH;Tøeboò,,U Petra a Pavla;;bus
49.008565345021;14.7991458063842;36749;JH;Tøeboò,,U Petra a Pavla;;bus
49.0052781044739;14.8082010695199;36748;JH;Tøeboò,,U myslivny;;bus
49.0053563278713;14.8087483094739;36748;JH;Tøeboò,,U myslivny;;bus
48.9642978088494;14.8596620850951;19968;JH;Majdalena,,po¹ta;;bus
48.9643097968879;14.8597740300659;19968;JH;Majdalena,,po¹ta;;bus
48.9506416670882;14.8685643323705;52788;JH;Majdalena,,¾el.st.;;bus
48.9510193437533;14.8650016216914;19970;JH;Majdalena,,JÈE;;bus
48.8899350921826;14.889604960167;33968;JH;Suchdol n.Lu¾.,Tu¹»;;bus
48.8902898100835;14.8898688008469;33968;JH;Suchdol n.Lu¾.,Tu¹»;;bus
48.8858146937467;14.9054167219964;33954;JH;Suchdol n.Lu¾.,,New York;;bus
48.9050292830739;14.8838162803248;33952;JH;Suchdol n.Lu¾.,,JDZ;;bus
48.9099025000292;14.9154929498351;33963;JH;Suchdol n.Lu¾.,Klikov,stadion;;bus
48.9099574944124;14.9155080214304;33963;JH;Suchdol n.Lu¾.,Klikov,stadion;;bus
48.9185491761669;14.9205378658022;33966;JH;Suchdol n.Lu¾.,Klikov,®abárna;;bus
48.9527835991551;14.9261617010858;11528;JH;Chlum u Tøebonì,,sklárny;;bus
48.9527128984347;14.92625054781;11528;JH;Chlum u Tøebonì,,sklárny;;bus
48.9510197204582;14.9156388515597;8376;JH;Hamr;;bus
48.9509714858782;14.9154243509779;8376;JH;Hamr;;bus
48.9512428875214;14.9053158019756;8377;JH;Hamr,,su¹árna;;bus
